[
  {
    "Airport ID": 1,
    "Name": "Goroka Airport",
    "City": "Goroka",
    "Country": "Papua New Guinea",
    "IATA": "GKA",
    "Latitude": -6.081689835,
    "Longitude": 145.3919983,
    "Timezone": 10
  },
  {
    "Airport ID": 2,
    "Name": "Madang Airport",
    "City": "Madang",
    "Country": "Papua New Guinea",
    "IATA": "MAG",
    "Latitude": -5.207079887,
    "Longitude": 145.7890015,
    "Timezone": 10
  },
  {
    "Airport ID": 3,
    "Name": "Mount Hagen Kagamuga Airport",
    "City": "Mount Hagen",
    "Country": "Papua New Guinea",
    "IATA": "HGU",
    "Latitude": -5.826789856,
    "Longitude": 144.2960052,
    "Timezone": 10
  },
  {
    "Airport ID": 4,
    "Name": "Nadzab Airport",
    "City": "Nadzab",
    "Country": "Papua New Guinea",
    "IATA": "LAE",
    "Latitude": -6.569803,
    "Longitude": 146.725977,
    "Timezone": 10
  },
  {
    "Airport ID": 5,
    "Name": "Port Moresby Jacksons International Airport",
    "City": "Port Moresby",
    "Country": "Papua New Guinea",
    "IATA": "POM",
    "Latitude": -9.443380356,
    "Longitude": 147.2200012,
    "Timezone": 10
  },
  {
    "Airport ID": 6,
    "Name": "Wewak International Airport",
    "City": "Wewak",
    "Country": "Papua New Guinea",
    "IATA": "WWK",
    "Latitude": -3.583830118,
    "Longitude": 143.6690063,
    "Timezone": 10
  },
  {
    "Airport ID": 7,
    "Name": "Narsarsuaq Airport",
    "City": "Narssarssuaq",
    "Country": "Greenland",
    "IATA": "UAK",
    "Latitude": 61.16049957,
    "Longitude": -45.42599869,
    "Timezone": -3
  },
  {
    "Airport ID": 8,
    "Name": "Godthaab / Nuuk Airport",
    "City": "Godthaab",
    "Country": "Greenland",
    "IATA": "GOH",
    "Latitude": 64.19090271,
    "Longitude": -51.67810059,
    "Timezone": -3
  },
  {
    "Airport ID": 9,
    "Name": "Kangerlussuaq Airport",
    "City": "Sondrestrom",
    "Country": "Greenland",
    "IATA": "SFJ",
    "Latitude": 67.0122219,
    "Longitude": -50.71160316,
    "Timezone": -3
  },
  {
    "Airport ID": 10,
    "Name": "Thule Air Base",
    "City": "Thule",
    "Country": "Greenland",
    "IATA": "THU",
    "Latitude": 76.53119659,
    "Longitude": -68.70320129,
    "Timezone": -4
  },
  {
    "Airport ID": 11,
    "Name": "Akureyri Airport",
    "City": "Akureyri",
    "Country": "Iceland",
    "IATA": "AEY",
    "Latitude": 65.66000366,
    "Longitude": -18.0727005,
    "Timezone": 0
  },
  {
    "Airport ID": 12,
    "Name": "Egilsstaðir Airport",
    "City": "Egilsstadir",
    "Country": "Iceland",
    "IATA": "EGS",
    "Latitude": 65.28330231,
    "Longitude": -14.40139961,
    "Timezone": 0
  },
  {
    "Airport ID": 13,
    "Name": "Hornafjörður Airport",
    "City": "Hofn",
    "Country": "Iceland",
    "IATA": "HFN",
    "Latitude": 64.295601,
    "Longitude": -15.2272,
    "Timezone": 0
  },
  {
    "Airport ID": 14,
    "Name": "Húsavík Airport",
    "City": "Husavik",
    "Country": "Iceland",
    "IATA": "HZK",
    "Latitude": 65.952301,
    "Longitude": -17.426001,
    "Timezone": 0
  },
  {
    "Airport ID": 15,
    "Name": "Ísafjörður Airport",
    "City": "Isafjordur",
    "Country": "Iceland",
    "IATA": "IFJ",
    "Latitude": 66.05809784,
    "Longitude": -23.13529968,
    "Timezone": 0
  },
  {
    "Airport ID": 16,
    "Name": "Keflavik International Airport",
    "City": "Keflavik",
    "Country": "Iceland",
    "IATA": "KEF",
    "Latitude": 63.98500061,
    "Longitude": -22.60560036,
    "Timezone": 0
  },
  {
    "Airport ID": 17,
    "Name": "Patreksfjörður Airport",
    "City": "Patreksfjordur",
    "Country": "Iceland",
    "IATA": "PFJ",
    "Latitude": 65.555801,
    "Longitude": -23.965,
    "Timezone": 0
  },
  {
    "Airport ID": 18,
    "Name": "Reykjavik Airport",
    "City": "Reykjavik",
    "Country": "Iceland",
    "IATA": "RKV",
    "Latitude": 64.12999725,
    "Longitude": -21.94059944,
    "Timezone": 0
  },
  {
    "Airport ID": 19,
    "Name": "Siglufjörður Airport",
    "City": "Siglufjordur",
    "Country": "Iceland",
    "IATA": "SIJ",
    "Latitude": 66.133301,
    "Longitude": -18.9167,
    "Timezone": 0
  },
  {
    "Airport ID": 20,
    "Name": "Vestmannaeyjar Airport",
    "City": "Vestmannaeyjar",
    "Country": "Iceland",
    "IATA": "VEY",
    "Latitude": 63.42430115,
    "Longitude": -20.27890015,
    "Timezone": 0
  },
  {
    "Airport ID": 21,
    "Name": "Sault Ste Marie Airport",
    "City": "Sault Sainte Marie",
    "Country": "Canada",
    "IATA": "YAM",
    "Latitude": 46.48500061,
    "Longitude": -84.50939941,
    "Timezone": -5
  },
  {
    "Airport ID": 22,
    "Name": "Winnipeg / St. Andrews Airport",
    "City": "Winnipeg",
    "Country": "Canada",
    "IATA": "\\N",
    "Latitude": 50.0564003,
    "Longitude": -97.03250122,
    "Timezone": -6
  },
  {
    "Airport ID": 23,
    "Name": "Halifax / CFB Shearwater Heliport",
    "City": "Halifax",
    "Country": "Canada",
    "IATA": "\\N",
    "Latitude": 44.639702,
    "Longitude": -63.499401,
    "Timezone": -4
  },
  {
    "Airport ID": 24,
    "Name": "St. Anthony Airport",
    "City": "St. Anthony",
    "Country": "Canada",
    "IATA": "YAY",
    "Latitude": 51.39189911,
    "Longitude": -56.08309937,
    "Timezone": -3.5
  },
  {
    "Airport ID": 25,
    "Name": "Tofino / Long Beach Airport",
    "City": "Tofino",
    "Country": "Canada",
    "IATA": "YAZ",
    "Latitude": 49.079833,
    "Longitude": -125.775583,
    "Timezone": -8
  },
  {
    "Airport ID": 26,
    "Name": "Kugaaruk Airport",
    "City": "Pelly Bay",
    "Country": "Canada",
    "IATA": "YBB",
    "Latitude": 68.534401,
    "Longitude": -89.808098,
    "Timezone": -7
  },
  {
    "Airport ID": 27,
    "Name": "Baie Comeau Airport",
    "City": "Baie Comeau",
    "Country": "Canada",
    "IATA": "YBC",
    "Latitude": 49.13249969,
    "Longitude": -68.20439911,
    "Timezone": -5
  },
  {
    "Airport ID": 28,
    "Name": "CFB Bagotville",
    "City": "Bagotville",
    "Country": "Canada",
    "IATA": "YBG",
    "Latitude": 48.33060074,
    "Longitude": -70.99639893,
    "Timezone": -5
  },
  {
    "Airport ID": 29,
    "Name": "Baker Lake Airport",
    "City": "Baker Lake",
    "Country": "Canada",
    "IATA": "YBK",
    "Latitude": 64.29889679,
    "Longitude": -96.07779694,
    "Timezone": -6
  },
  {
    "Airport ID": 30,
    "Name": "Campbell River Airport",
    "City": "Campbell River",
    "Country": "Canada",
    "IATA": "YBL",
    "Latitude": 49.95080185,
    "Longitude": -125.2710037,
    "Timezone": -8
  },
  {
    "Airport ID": 31,
    "Name": "Brandon Municipal Airport",
    "City": "Brandon",
    "Country": "Canada",
    "IATA": "YBR",
    "Latitude": 49.91,
    "Longitude": -99.951897,
    "Timezone": -6
  },
  {
    "Airport ID": 32,
    "Name": "Cambridge Bay Airport",
    "City": "Cambridge Bay",
    "Country": "Canada",
    "IATA": "YCB",
    "Latitude": 69.10810089,
    "Longitude": -105.1380005,
    "Timezone": -7
  },
  {
    "Airport ID": 33,
    "Name": "Nanaimo Airport",
    "City": "Nanaimo",
    "Country": "Canada",
    "IATA": "YCD",
    "Latitude": 49.05497022,
    "Longitude": -123.8698626,
    "Timezone": -8
  },
  {
    "Airport ID": 34,
    "Name": "Castlegar/West Kootenay Regional Airport",
    "City": "Castlegar",
    "Country": "Canada",
    "IATA": "YCG",
    "Latitude": 49.29639816,
    "Longitude": -117.6320038,
    "Timezone": -8
  },
  {
    "Airport ID": 35,
    "Name": "Miramichi Airport",
    "City": "Chatham",
    "Country": "Canada",
    "IATA": "YCH",
    "Latitude": 47.007801,
    "Longitude": -65.449203,
    "Timezone": -4
  },
  {
    "Airport ID": 36,
    "Name": "Charlo Airport",
    "City": "Charlo",
    "Country": "Canada",
    "IATA": "YCL",
    "Latitude": 47.990799,
    "Longitude": -66.330299,
    "Timezone": -4
  },
  {
    "Airport ID": 37,
    "Name": "Kugluktuk Airport",
    "City": "Coppermine",
    "Country": "Canada",
    "IATA": "YCO",
    "Latitude": 67.816704,
    "Longitude": -115.143997,
    "Timezone": -7
  },
  {
    "Airport ID": 38,
    "Name": "Coronation Airport",
    "City": "Coronation",
    "Country": "Canada",
    "IATA": "YCT",
    "Latitude": 52.07500076,
    "Longitude": -111.4449997,
    "Timezone": -7
  },
  {
    "Airport ID": 39,
    "Name": "Chilliwack Airport",
    "City": "Chilliwack",
    "Country": "Canada",
    "IATA": "YCW",
    "Latitude": 49.15280151,
    "Longitude": -121.939003,
    "Timezone": -8
  },
  {
    "Airport ID": 40,
    "Name": "Clyde River Airport",
    "City": "Clyde River",
    "Country": "Canada",
    "IATA": "YCY",
    "Latitude": 70.48609924,
    "Longitude": -68.51670074,
    "Timezone": -5
  },
  {
    "Airport ID": 41,
    "Name": "Coral Harbour Airport",
    "City": "Coral Harbour",
    "Country": "Canada",
    "IATA": "YZS",
    "Latitude": 64.19329834,
    "Longitude": -83.35939789,
    "Timezone": -5
  },
  {
    "Airport ID": 42,
    "Name": "Dawson City Airport",
    "City": "Dawson",
    "Country": "Canada",
    "IATA": "YDA",
    "Latitude": 64.04309845,
    "Longitude": -139.128006,
    "Timezone": -8
  },
  {
    "Airport ID": 43,
    "Name": "Burwash Airport",
    "City": "Burwash",
    "Country": "Canada",
    "IATA": "YDB",
    "Latitude": 61.37110138,
    "Longitude": -139.0410004,
    "Timezone": -8
  },
  {
    "Airport ID": 44,
    "Name": "Princeton Airport",
    "City": "Princeton",
    "Country": "Canada",
    "IATA": "\\N",
    "Latitude": 49.4681015,
    "Longitude": -120.5110016,
    "Timezone": -8
  },
  {
    "Airport ID": 45,
    "Name": "Deer Lake Airport",
    "City": "Deer Lake",
    "Country": "Canada",
    "IATA": "YDF",
    "Latitude": 49.21080017,
    "Longitude": -57.39139938,
    "Timezone": -3.5
  },
  {
    "Airport ID": 46,
    "Name": "Dease Lake Airport",
    "City": "Dease Lake",
    "Country": "Canada",
    "IATA": "YDL",
    "Latitude": 58.42219925,
    "Longitude": -130.0319977,
    "Timezone": -8
  },
  {
    "Airport ID": 47,
    "Name": "Dauphin Barker Airport",
    "City": "Dauphin",
    "Country": "Canada",
    "IATA": "YDN",
    "Latitude": 51.10079956,
    "Longitude": -100.052002,
    "Timezone": -6
  },
  {
    "Airport ID": 48,
    "Name": "Dawson Creek Airport",
    "City": "Dawson Creek",
    "Country": "Canada",
    "IATA": "YDQ",
    "Latitude": 55.74229813,
    "Longitude": -120.1829987,
    "Timezone": -7
  },
  {
    "Airport ID": 49,
    "Name": "Edmonton International Airport",
    "City": "Edmonton",
    "Country": "Canada",
    "IATA": "YEG",
    "Latitude": 53.30970001,
    "Longitude": -113.5800018,
    "Timezone": -7
  },
  {
    "Airport ID": 50,
    "Name": "Arviat Airport",
    "City": "Eskimo Point",
    "Country": "Canada",
    "IATA": "YEK",
    "Latitude": 61.09420013,
    "Longitude": -94.07080078,
    "Timezone": -6
  },
  {
    "Airport ID": 51,
    "Name": "Estevan Airport",
    "City": "Estevan",
    "Country": "Canada",
    "IATA": "YEN",
    "Latitude": 49.21030045,
    "Longitude": -102.9660034,
    "Timezone": -6
  },
  {
    "Airport ID": 52,
    "Name": "Edson Airport",
    "City": "Edson",
    "Country": "Canada",
    "IATA": "YET",
    "Latitude": 53.57889938,
    "Longitude": -116.4649963,
    "Timezone": -7
  },
  {
    "Airport ID": 53,
    "Name": "Eureka Airport",
    "City": "Eureka",
    "Country": "Canada",
    "IATA": "YEU",
    "Latitude": 79.99469757,
    "Longitude": -85.81420136,
    "Timezone": -6
  },
  {
    "Airport ID": 54,
    "Name": "Inuvik Mike Zubko Airport",
    "City": "Inuvik",
    "Country": "Canada",
    "IATA": "YEV",
    "Latitude": 68.30419922,
    "Longitude": -133.4830017,
    "Timezone": -7
  },
  {
    "Airport ID": 55,
    "Name": "Iqaluit Airport",
    "City": "Iqaluit",
    "Country": "Canada",
    "IATA": "YFB",
    "Latitude": 63.756402,
    "Longitude": -68.555801,
    "Timezone": -5
  },
  {
    "Airport ID": 56,
    "Name": "Fredericton Airport",
    "City": "Fredericton",
    "Country": "Canada",
    "IATA": "YFC",
    "Latitude": 45.8689003,
    "Longitude": -66.53720093,
    "Timezone": -4
  },
  {
    "Airport ID": 57,
    "Name": "Forestville Airport",
    "City": "Forestville",
    "Country": "Canada",
    "IATA": "YFE",
    "Latitude": 48.74610138,
    "Longitude": -69.09719849,
    "Timezone": -5
  },
  {
    "Airport ID": 58,
    "Name": "Flin Flon Airport",
    "City": "Flin Flon",
    "Country": "Canada",
    "IATA": "YFO",
    "Latitude": 54.67810059,
    "Longitude": -101.6819992,
    "Timezone": -6
  },
  {
    "Airport ID": 59,
    "Name": "Fort Resolution Airport",
    "City": "Fort Resolution",
    "Country": "Canada",
    "IATA": "YFR",
    "Latitude": 61.18080139,
    "Longitude": -113.6900024,
    "Timezone": -7
  },
  {
    "Airport ID": 60,
    "Name": "Fort Simpson Airport",
    "City": "Fort Simpson",
    "Country": "Canada",
    "IATA": "YFS",
    "Latitude": 61.7602005,
    "Longitude": -121.2369995,
    "Timezone": -7
  },
  {
    "Airport ID": 61,
    "Name": "Kingston Norman Rogers Airport",
    "City": "Kingston",
    "Country": "Canada",
    "IATA": "YGK",
    "Latitude": 44.22529984,
    "Longitude": -76.59690094,
    "Timezone": -5
  },
  {
    "Airport ID": 62,
    "Name": "La Grande Rivière Airport",
    "City": "La Grande Riviere",
    "Country": "Canada",
    "IATA": "YGL",
    "Latitude": 53.62530136,
    "Longitude": -77.70420074,
    "Timezone": -5
  },
  {
    "Airport ID": 63,
    "Name": "Gaspé (Michel-Pouliot) Airport",
    "City": "Gaspe",
    "Country": "Canada",
    "IATA": "YGP",
    "Latitude": 48.77529907,
    "Longitude": -64.47859955,
    "Timezone": -5
  },
  {
    "Airport ID": 64,
    "Name": "Geraldton Greenstone Regional Airport",
    "City": "Geraldton",
    "Country": "Canada",
    "IATA": "YGQ",
    "Latitude": 49.77830124,
    "Longitude": -86.93939972,
    "Timezone": -5
  },
  {
    "Airport ID": 65,
    "Name": "Îles-de-la-Madeleine Airport",
    "City": "Iles De La Madeleine",
    "Country": "Canada",
    "IATA": "YGR",
    "Latitude": 47.42470169,
    "Longitude": -61.77809906,
    "Timezone": -5
  },
  {
    "Airport ID": 66,
    "Name": "Hudson Bay Airport",
    "City": "Hudson Bay",
    "Country": "Canada",
    "IATA": "YHB",
    "Latitude": 52.81669998,
    "Longitude": -102.310997,
    "Timezone": -6
  },
  {
    "Airport ID": 67,
    "Name": "Dryden Regional Airport",
    "City": "Dryden",
    "Country": "Canada",
    "IATA": "YHD",
    "Latitude": 49.831699,
    "Longitude": -92.744202,
    "Timezone": -6
  },
  {
    "Airport ID": 68,
    "Name": "Ulukhaktok Holman Airport",
    "City": "Holman Island",
    "Country": "Canada",
    "IATA": "YHI",
    "Latitude": 70.76280212,
    "Longitude": -117.8059998,
    "Timezone": -7
  },
  {
    "Airport ID": 69,
    "Name": "Gjoa Haven Airport",
    "City": "Gjoa Haven",
    "Country": "Canada",
    "IATA": "YHK",
    "Latitude": 68.63559723,
    "Longitude": -95.84970093,
    "Timezone": -7
  },
  {
    "Airport ID": 70,
    "Name": "John C. Munro Hamilton International Airport",
    "City": "Hamilton",
    "Country": "Canada",
    "IATA": "YHM",
    "Latitude": 43.17359924,
    "Longitude": -79.93499756,
    "Timezone": -5
  },
  {
    "Airport ID": 71,
    "Name": "Montréal / Saint-Hubert Airport",
    "City": "Montreal",
    "Country": "Canada",
    "IATA": "YHU",
    "Latitude": 45.51750183,
    "Longitude": -73.41690063,
    "Timezone": -5
  },
  {
    "Airport ID": 72,
    "Name": "Hay River / Merlyn Carter Airport",
    "City": "Hay River",
    "Country": "Canada",
    "IATA": "YHY",
    "Latitude": 60.83969879,
    "Longitude": -115.7829971,
    "Timezone": -7
  },
  {
    "Airport ID": 73,
    "Name": "Halifax / Stanfield International Airport",
    "City": "Halifax",
    "Country": "Canada",
    "IATA": "YHZ",
    "Latitude": 44.88079834,
    "Longitude": -63.50859833,
    "Timezone": -4
  },
  {
    "Airport ID": 74,
    "Name": "Atikokan Municipal Airport",
    "City": "Atikokan",
    "Country": "Canada",
    "IATA": "YIB",
    "Latitude": 48.77389908,
    "Longitude": -91.63860321,
    "Timezone": -5
  },
  {
    "Airport ID": 75,
    "Name": "Pond Inlet Airport",
    "City": "Pond Inlet",
    "Country": "Canada",
    "IATA": "YIO",
    "Latitude": 72.6832962,
    "Longitude": -77.96669769,
    "Timezone": -5
  },
  {
    "Airport ID": 76,
    "Name": "St Jean Airport",
    "City": "St. Jean",
    "Country": "Canada",
    "IATA": "YJN",
    "Latitude": 45.29439926,
    "Longitude": -73.28109741,
    "Timezone": -5
  },
  {
    "Airport ID": 77,
    "Name": "Stephenville Airport",
    "City": "Stephenville",
    "Country": "Canada",
    "IATA": "YJT",
    "Latitude": 48.5442009,
    "Longitude": -58.54999924,
    "Timezone": -3.5
  },
  {
    "Airport ID": 78,
    "Name": "Kamloops Airport",
    "City": "Kamloops",
    "Country": "Canada",
    "IATA": "YKA",
    "Latitude": 50.70220184,
    "Longitude": -120.4440002,
    "Timezone": -8
  },
  {
    "Airport ID": 79,
    "Name": "Waterloo Airport",
    "City": "Waterloo",
    "Country": "Canada",
    "IATA": "YKF",
    "Latitude": 43.46080017,
    "Longitude": -80.37860107,
    "Timezone": -5
  },
  {
    "Airport ID": 80,
    "Name": "Schefferville Airport",
    "City": "Schefferville",
    "Country": "Canada",
    "IATA": "YKL",
    "Latitude": 54.80530167,
    "Longitude": -66.80529785,
    "Timezone": -5
  },
  {
    "Airport ID": 81,
    "Name": "Kindersley Airport",
    "City": "Kindersley",
    "Country": "Canada",
    "IATA": "YKY",
    "Latitude": 51.51750183,
    "Longitude": -109.1809998,
    "Timezone": -6
  },
  {
    "Airport ID": 82,
    "Name": "Buttonville Municipal Airport",
    "City": "Toronto",
    "Country": "Canada",
    "IATA": "YKZ",
    "Latitude": 43.86220169,
    "Longitude": -79.37000275,
    "Timezone": -5
  },
  {
    "Airport ID": 83,
    "Name": "Chapleau Airport",
    "City": "Chapleau",
    "Country": "Canada",
    "IATA": "YLD",
    "Latitude": 47.81999969,
    "Longitude": -83.34670258,
    "Timezone": -5
  },
  {
    "Airport ID": 84,
    "Name": "Meadow Lake Airport",
    "City": "Meadow Lake",
    "Country": "Canada",
    "IATA": "YLJ",
    "Latitude": 54.12530136,
    "Longitude": -108.5230026,
    "Timezone": -6
  },
  {
    "Airport ID": 85,
    "Name": "Lloydminster Airport",
    "City": "Lloydminster",
    "Country": "Canada",
    "IATA": "YLL",
    "Latitude": 53.30920029,
    "Longitude": -110.072998,
    "Timezone": -7
  },
  {
    "Airport ID": 86,
    "Name": "Alert Airport",
    "City": "Alert",
    "Country": "Canada",
    "IATA": "YLT",
    "Latitude": 82.51779938,
    "Longitude": -62.2806015,
    "Timezone": -5
  },
  {
    "Airport ID": 87,
    "Name": "Kelowna International Airport",
    "City": "Kelowna",
    "Country": "Canada",
    "IATA": "YLW",
    "Latitude": 49.95610046,
    "Longitude": -119.3779984,
    "Timezone": -8
  },
  {
    "Airport ID": 88,
    "Name": "Mayo Airport",
    "City": "Mayo",
    "Country": "Canada",
    "IATA": "YMA",
    "Latitude": 63.61640167,
    "Longitude": -135.8679962,
    "Timezone": -8
  },
  {
    "Airport ID": 89,
    "Name": "Moose Jaw Air Vice Marshal C. M. McEwen Airport",
    "City": "Moose Jaw",
    "Country": "Canada",
    "IATA": "YMJ",
    "Latitude": 50.33029938,
    "Longitude": -105.5589981,
    "Timezone": -6
  },
  {
    "Airport ID": 90,
    "Name": "Fort McMurray Airport",
    "City": "Fort Mcmurray",
    "Country": "Canada",
    "IATA": "YMM",
    "Latitude": 56.65330124,
    "Longitude": -111.2220001,
    "Timezone": -7
  },
  {
    "Airport ID": 91,
    "Name": "Moosonee Airport",
    "City": "Moosonee",
    "Country": "Canada",
    "IATA": "YMO",
    "Latitude": 51.29109955,
    "Longitude": -80.60780334,
    "Timezone": -5
  },
  {
    "Airport ID": 92,
    "Name": "Maniwaki Airport",
    "City": "Maniwaki",
    "Country": "Canada",
    "IATA": "YMW",
    "Latitude": 46.27280045,
    "Longitude": -75.99060059,
    "Timezone": -5
  },
  {
    "Airport ID": 93,
    "Name": "Montreal International (Mirabel) Airport",
    "City": "Montreal",
    "Country": "Canada",
    "IATA": "YMX",
    "Latitude": 45.679501,
    "Longitude": -74.038696,
    "Timezone": -5
  },
  {
    "Airport ID": 94,
    "Name": "Natashquan Airport",
    "City": "Natashquan",
    "Country": "Canada",
    "IATA": "YNA",
    "Latitude": 50.18999863,
    "Longitude": -61.78919983,
    "Timezone": -5
  },
  {
    "Airport ID": 95,
    "Name": "Ottawa / Gatineau Airport",
    "City": "Gatineau",
    "Country": "Canada",
    "IATA": "YND",
    "Latitude": 45.52170181,
    "Longitude": -75.56359863,
    "Timezone": -5
  },
  {
    "Airport ID": 96,
    "Name": "Matagami Airport",
    "City": "Matagami",
    "Country": "Canada",
    "IATA": "YNM",
    "Latitude": 49.76169968,
    "Longitude": -77.80280304,
    "Timezone": -5
  },
  {
    "Airport ID": 97,
    "Name": "Old Crow Airport",
    "City": "Old Crow",
    "Country": "Canada",
    "IATA": "YOC",
    "Latitude": 67.57060242,
    "Longitude": -139.8390045,
    "Timezone": -8
  },
  {
    "Airport ID": 98,
    "Name": "CFB Cold Lake",
    "City": "Cold Lake",
    "Country": "Canada",
    "IATA": "YOD",
    "Latitude": 54.40499878,
    "Longitude": -110.2789993,
    "Timezone": -7
  },
  {
    "Airport ID": 99,
    "Name": "High Level Airport",
    "City": "High Level",
    "Country": "Canada",
    "IATA": "YOJ",
    "Latitude": 58.62139893,
    "Longitude": -117.1650009,
    "Timezone": -7
  },
  {
    "Airport ID": 100,
    "Name": "Ottawa Macdonald-Cartier International Airport",
    "City": "Ottawa",
    "Country": "Canada",
    "IATA": "YOW",
    "Latitude": 45.32249832,
    "Longitude": -75.66919708,
    "Timezone": -5
  },
  {
    "Airport ID": 101,
    "Name": "Prince Albert Glass Field",
    "City": "Prince Albert",
    "Country": "Canada",
    "IATA": "YPA",
    "Latitude": 53.21419907,
    "Longitude": -105.6729965,
    "Timezone": -6
  },
  {
    "Airport ID": 102,
    "Name": "Peace River Airport",
    "City": "Peace River",
    "Country": "Canada",
    "IATA": "YPE",
    "Latitude": 56.226898,
    "Longitude": -117.446999,
    "Timezone": -7
  },
  {
    "Airport ID": 103,
    "Name": "Southport Airport",
    "City": "Portage-la-prairie",
    "Country": "Canada",
    "IATA": "YPG",
    "Latitude": 49.903099,
    "Longitude": -98.273817,
    "Timezone": -6
  },
  {
    "Airport ID": 104,
    "Name": "Pitt Meadows Airport",
    "City": "Pitt Meadows",
    "Country": "Canada",
    "IATA": "\\N",
    "Latitude": 49.21609879,
    "Longitude": -122.7099991,
    "Timezone": -8
  },
  {
    "Airport ID": 105,
    "Name": "Pickle Lake Airport",
    "City": "Pickle Lake",
    "Country": "Canada",
    "IATA": "YPL",
    "Latitude": 51.44639969,
    "Longitude": -90.21420288,
    "Timezone": -5
  },
  {
    "Airport ID": 106,
    "Name": "Port Menier Airport",
    "City": "Port Menier",
    "Country": "Canada",
    "IATA": "YPN",
    "Latitude": 49.83639908,
    "Longitude": -64.28859711,
    "Timezone": -5
  },
  {
    "Airport ID": 107,
    "Name": "Peterborough Airport",
    "City": "Peterborough",
    "Country": "Canada",
    "IATA": "YPQ",
    "Latitude": 44.22999954,
    "Longitude": -78.36329651,
    "Timezone": -5
  },
  {
    "Airport ID": 108,
    "Name": "Prince Rupert Airport",
    "City": "Prince Pupert",
    "Country": "Canada",
    "IATA": "YPR",
    "Latitude": 54.28609848,
    "Longitude": -130.4450073,
    "Timezone": -8
  },
  {
    "Airport ID": 109,
    "Name": "Fort Chipewyan Airport",
    "City": "Fort Chipewyan",
    "Country": "Canada",
    "IATA": "YPY",
    "Latitude": 58.76720047,
    "Longitude": -111.1169968,
    "Timezone": -7
  },
  {
    "Airport ID": 110,
    "Name": "Muskoka Airport",
    "City": "Muskoka",
    "Country": "Canada",
    "IATA": "YQA",
    "Latitude": 44.97470093,
    "Longitude": -79.30329895,
    "Timezone": -5
  },
  {
    "Airport ID": 111,
    "Name": "Quebec Jean Lesage International Airport",
    "City": "Quebec",
    "Country": "Canada",
    "IATA": "YQB",
    "Latitude": 46.7911,
    "Longitude": -71.393303,
    "Timezone": -5
  },
  {
    "Airport ID": 112,
    "Name": "Red Deer Regional Airport",
    "City": "Red Deer Industrial",
    "Country": "Canada",
    "IATA": "YQF",
    "Latitude": 52.18220139,
    "Longitude": -113.8939972,
    "Timezone": -7
  },
  {
    "Airport ID": 113,
    "Name": "Windsor Airport",
    "City": "Windsor",
    "Country": "Canada",
    "IATA": "YQG",
    "Latitude": 42.27560043,
    "Longitude": -82.95559692,
    "Timezone": -5
  },
  {
    "Airport ID": 114,
    "Name": "Watson Lake Airport",
    "City": "Watson Lake",
    "Country": "Canada",
    "IATA": "YQH",
    "Latitude": 60.11640167,
    "Longitude": -128.8220062,
    "Timezone": -8
  },
  {
    "Airport ID": 115,
    "Name": "Kenora Airport",
    "City": "Kenora",
    "Country": "Canada",
    "IATA": "YQK",
    "Latitude": 49.78829956,
    "Longitude": -94.36309814,
    "Timezone": -6
  },
  {
    "Airport ID": 116,
    "Name": "Lethbridge County Airport",
    "City": "Lethbridge",
    "Country": "Canada",
    "IATA": "YQL",
    "Latitude": 49.63029861,
    "Longitude": -112.8000031,
    "Timezone": -7
  },
  {
    "Airport ID": 117,
    "Name": "Greater Moncton International Airport",
    "City": "Moncton",
    "Country": "Canada",
    "IATA": "YQM",
    "Latitude": 46.11220169,
    "Longitude": -64.6785965,
    "Timezone": -4
  },
  {
    "Airport ID": 119,
    "Name": "Comox Airport",
    "City": "Comox",
    "Country": "Canada",
    "IATA": "YQQ",
    "Latitude": 49.71080017,
    "Longitude": -124.887001,
    "Timezone": -8
  },
  {
    "Airport ID": 120,
    "Name": "Regina International Airport",
    "City": "Regina",
    "Country": "Canada",
    "IATA": "YQR",
    "Latitude": 50.43190002,
    "Longitude": -104.6660004,
    "Timezone": -6
  },
  {
    "Airport ID": 121,
    "Name": "Thunder Bay Airport",
    "City": "Thunder Bay",
    "Country": "Canada",
    "IATA": "YQT",
    "Latitude": 48.37189865,
    "Longitude": -89.32389832,
    "Timezone": -5
  },
  {
    "Airport ID": 122,
    "Name": "Grande Prairie Airport",
    "City": "Grande Prairie",
    "Country": "Canada",
    "IATA": "YQU",
    "Latitude": 55.17969894,
    "Longitude": -118.8850021,
    "Timezone": -7
  },
  {
    "Airport ID": 123,
    "Name": "Yorkton Municipal Airport",
    "City": "Yorkton",
    "Country": "Canada",
    "IATA": "YQV",
    "Latitude": 51.26470184,
    "Longitude": -102.461998,
    "Timezone": -6
  },
  {
    "Airport ID": 124,
    "Name": "North Battleford Airport",
    "City": "North Battleford",
    "Country": "Canada",
    "IATA": "YQW",
    "Latitude": 52.76919937,
    "Longitude": -108.2440033,
    "Timezone": -6
  },
  {
    "Airport ID": 125,
    "Name": "Gander International Airport",
    "City": "Gander",
    "Country": "Canada",
    "IATA": "YQX",
    "Latitude": 48.93690109,
    "Longitude": -54.56809998,
    "Timezone": -3.5
  },
  {
    "Airport ID": 126,
    "Name": "Sydney / J.A. Douglas McCurdy Airport",
    "City": "Sydney",
    "Country": "Canada",
    "IATA": "YQY",
    "Latitude": 46.1614,
    "Longitude": -60.047798,
    "Timezone": -4
  },
  {
    "Airport ID": 127,
    "Name": "Quesnel Airport",
    "City": "Quesnel",
    "Country": "Canada",
    "IATA": "YQZ",
    "Latitude": 53.02610016,
    "Longitude": -122.5100021,
    "Timezone": -8
  },
  {
    "Airport ID": 128,
    "Name": "Resolute Bay Airport",
    "City": "Resolute",
    "Country": "Canada",
    "IATA": "YRB",
    "Latitude": 74.71690369,
    "Longitude": -94.9693985,
    "Timezone": -6
  },
  {
    "Airport ID": 129,
    "Name": "Rivière-du-Loup Airport",
    "City": "Riviere Du Loup",
    "Country": "Canada",
    "IATA": "YRI",
    "Latitude": 47.76440048,
    "Longitude": -69.58470154,
    "Timezone": -5
  },
  {
    "Airport ID": 130,
    "Name": "Roberval Airport",
    "City": "Roberval",
    "Country": "Canada",
    "IATA": "YRJ",
    "Latitude": 48.52000046,
    "Longitude": -72.26560211,
    "Timezone": -5
  },
  {
    "Airport ID": 131,
    "Name": "Rocky Mountain House Airport",
    "City": "Rocky Mountain House",
    "Country": "Canada",
    "IATA": "YRM",
    "Latitude": 52.42969894,
    "Longitude": -114.9039993,
    "Timezone": -7
  },
  {
    "Airport ID": 132,
    "Name": "Rankin Inlet Airport",
    "City": "Rankin Inlet",
    "Country": "Canada",
    "IATA": "YRT",
    "Latitude": 62.81140137,
    "Longitude": -92.11579895,
    "Timezone": -6
  },
  {
    "Airport ID": 133,
    "Name": "Sudbury Airport",
    "City": "Sudbury",
    "Country": "Canada",
    "IATA": "YSB",
    "Latitude": 46.625,
    "Longitude": -80.79889679,
    "Timezone": -5
  },
  {
    "Airport ID": 134,
    "Name": "Sherbrooke Airport",
    "City": "Sherbrooke",
    "Country": "Canada",
    "IATA": "YSC",
    "Latitude": 45.43859863,
    "Longitude": -71.69139862,
    "Timezone": -5
  },
  {
    "Airport ID": 135,
    "Name": "Saint John Airport",
    "City": "St. John",
    "Country": "Canada",
    "IATA": "YSJ",
    "Latitude": 45.31610107,
    "Longitude": -65.89029694,
    "Timezone": -4
  },
  {
    "Airport ID": 136,
    "Name": "Fort Smith Airport",
    "City": "Fort Smith",
    "Country": "Canada",
    "IATA": "YSM",
    "Latitude": 60.02030182,
    "Longitude": -111.961998,
    "Timezone": -7
  },
  {
    "Airport ID": 137,
    "Name": "Nanisivik Airport",
    "City": "Nanisivik",
    "Country": "Canada",
    "IATA": "YSR",
    "Latitude": 72.982201,
    "Longitude": -84.613602,
    "Timezone": -5
  },
  {
    "Airport ID": 138,
    "Name": "Summerside Airport",
    "City": "Summerside",
    "Country": "Canada",
    "IATA": "YSU",
    "Latitude": 46.44060135,
    "Longitude": -63.83359909,
    "Timezone": -4
  },
  {
    "Airport ID": 139,
    "Name": "Sachs Harbour (David Nasogaluak Jr. Saaryuaq) Airport",
    "City": "Sachs Harbour",
    "Country": "Canada",
    "IATA": "YSY",
    "Latitude": 71.99389648,
    "Longitude": -125.2429962,
    "Timezone": -7
  },
  {
    "Airport ID": 140,
    "Name": "Cape Dorset Airport",
    "City": "Cape Dorset",
    "Country": "Canada",
    "IATA": "YTE",
    "Latitude": 64.23000336,
    "Longitude": -76.52670288,
    "Timezone": -5
  },
  {
    "Airport ID": 141,
    "Name": "Thompson Airport",
    "City": "Thompson",
    "Country": "Canada",
    "IATA": "YTH",
    "Latitude": 55.80110168,
    "Longitude": -97.86419678,
    "Timezone": -6
  },
  {
    "Airport ID": 142,
    "Name": "CFB Trenton",
    "City": "Trenton",
    "Country": "Canada",
    "IATA": "YTR",
    "Latitude": 44.1189003,
    "Longitude": -77.52809906,
    "Timezone": -5
  },
  {
    "Airport ID": 143,
    "Name": "Timmins/Victor M. Power",
    "City": "Timmins",
    "Country": "Canada",
    "IATA": "YTS",
    "Latitude": 48.56969833,
    "Longitude": -81.37670136,
    "Timezone": -5
  },
  {
    "Airport ID": 144,
    "Name": "Billy Bishop Toronto City Centre Airport",
    "City": "Toronto",
    "Country": "Canada",
    "IATA": "YTZ",
    "Latitude": 43.627499,
    "Longitude": -79.396202,
    "Timezone": -5
  },
  {
    "Airport ID": 145,
    "Name": "Tuktoyaktuk Airport",
    "City": "Tuktoyaktuk",
    "Country": "Canada",
    "IATA": "YUB",
    "Latitude": 69.4332962,
    "Longitude": -133.026001,
    "Timezone": -7
  },
  {
    "Airport ID": 146,
    "Name": "Montreal / Pierre Elliott Trudeau International Airport",
    "City": "Montreal",
    "Country": "Canada",
    "IATA": "YUL",
    "Latitude": 45.47060013,
    "Longitude": -73.74079895,
    "Timezone": -5
  },
  {
    "Airport ID": 147,
    "Name": "Repulse Bay Airport",
    "City": "Repulse Bay",
    "Country": "Canada",
    "IATA": "YUT",
    "Latitude": 66.52140045,
    "Longitude": -86.22470093,
    "Timezone": -6
  },
  {
    "Airport ID": 148,
    "Name": "Hall Beach Airport",
    "City": "Hall Beach",
    "Country": "Canada",
    "IATA": "YUX",
    "Latitude": 68.77610016,
    "Longitude": -81.2425,
    "Timezone": -5
  },
  {
    "Airport ID": 149,
    "Name": "Rouyn Noranda Airport",
    "City": "Rouyn",
    "Country": "Canada",
    "IATA": "YUY",
    "Latitude": 48.20610046,
    "Longitude": -78.83560181,
    "Timezone": -5
  },
  {
    "Airport ID": 150,
    "Name": "La Ronge Airport",
    "City": "La Ronge",
    "Country": "Canada",
    "IATA": "YVC",
    "Latitude": 55.15140152,
    "Longitude": -105.262001,
    "Timezone": -6
  },
  {
    "Airport ID": 151,
    "Name": "Vermilion Airport",
    "City": "Vermillion",
    "Country": "Canada",
    "IATA": "YVG",
    "Latitude": 53.35580063,
    "Longitude": -110.8239975,
    "Timezone": -7
  },
  {
    "Airport ID": 152,
    "Name": "Qikiqtarjuaq Airport",
    "City": "Broughton Island",
    "Country": "Canada",
    "IATA": "YVM",
    "Latitude": 67.54579926,
    "Longitude": -64.03140259,
    "Timezone": -5
  },
  {
    "Airport ID": 153,
    "Name": "Val-d'Or Airport",
    "City": "Val D'or",
    "Country": "Canada",
    "IATA": "YVO",
    "Latitude": 48.05329895,
    "Longitude": -77.78279877,
    "Timezone": -5
  },
  {
    "Airport ID": 154,
    "Name": "Kuujjuaq Airport",
    "City": "Quujjuaq",
    "Country": "Canada",
    "IATA": "YVP",
    "Latitude": 58.09609985,
    "Longitude": -68.42690277,
    "Timezone": -5
  },
  {
    "Airport ID": 155,
    "Name": "Norman Wells Airport",
    "City": "Norman Wells",
    "Country": "Canada",
    "IATA": "YVQ",
    "Latitude": 65.28160095,
    "Longitude": -126.7979965,
    "Timezone": -7
  },
  {
    "Airport ID": 156,
    "Name": "Vancouver International Airport",
    "City": "Vancouver",
    "Country": "Canada",
    "IATA": "YVR",
    "Latitude": 49.19390106,
    "Longitude": -123.1839981,
    "Timezone": -8
  },
  {
    "Airport ID": 157,
    "Name": "Buffalo Narrows Airport",
    "City": "Buffalo Narrows",
    "Country": "Canada",
    "IATA": "YVT",
    "Latitude": 55.84189987,
    "Longitude": -108.4179993,
    "Timezone": -6
  },
  {
    "Airport ID": 158,
    "Name": "Wiarton Airport",
    "City": "Wiarton",
    "Country": "Canada",
    "IATA": "YVV",
    "Latitude": 44.7458,
    "Longitude": -81.107201,
    "Timezone": -5
  },
  {
    "Airport ID": 159,
    "Name": "Petawawa Airport",
    "City": "Petawawa",
    "Country": "Canada",
    "IATA": "YWA",
    "Latitude": 45.95220184,
    "Longitude": -77.31919861,
    "Timezone": -5
  },
  {
    "Airport ID": 160,
    "Name": "Winnipeg / James Armstrong Richardson International Airport",
    "City": "Winnipeg",
    "Country": "Canada",
    "IATA": "YWG",
    "Latitude": 49.90999985,
    "Longitude": -97.23989868,
    "Timezone": -6
  },
  {
    "Airport ID": 161,
    "Name": "Wabush Airport",
    "City": "Wabush",
    "Country": "Canada",
    "IATA": "YWK",
    "Latitude": 52.9219017,
    "Longitude": -66.86440277,
    "Timezone": -4
  },
  {
    "Airport ID": 162,
    "Name": "Williams Lake Airport",
    "City": "Williams Lake",
    "Country": "Canada",
    "IATA": "YWL",
    "Latitude": 52.18310165,
    "Longitude": -122.0540009,
    "Timezone": -8
  },
  {
    "Airport ID": 163,
    "Name": "Wrigley Airport",
    "City": "Wrigley",
    "Country": "Canada",
    "IATA": "YWY",
    "Latitude": 63.20940018,
    "Longitude": -123.4369965,
    "Timezone": -7
  },
  {
    "Airport ID": 164,
    "Name": "Cranbrook/Canadian Rockies International Airport",
    "City": "Cranbrook",
    "Country": "Canada",
    "IATA": "YXC",
    "Latitude": 49.6108017,
    "Longitude": -115.7819977,
    "Timezone": -7
  },
  {
    "Airport ID": 165,
    "Name": "Edmonton City Centre (Blatchford Field) Airport",
    "City": "Edmonton",
    "Country": "Canada",
    "IATA": "YXD",
    "Latitude": 53.57249832,
    "Longitude": -113.5210037,
    "Timezone": -7
  },
  {
    "Airport ID": 166,
    "Name": "Saskatoon John G. Diefenbaker International Airport",
    "City": "Saskatoon",
    "Country": "Canada",
    "IATA": "YXE",
    "Latitude": 52.17079926,
    "Longitude": -106.6999969,
    "Timezone": -6
  },
  {
    "Airport ID": 167,
    "Name": "Medicine Hat Airport",
    "City": "Medicine Hat",
    "Country": "Canada",
    "IATA": "YXH",
    "Latitude": 50.01890182,
    "Longitude": -110.7210007,
    "Timezone": -7
  },
  {
    "Airport ID": 168,
    "Name": "Fort St John Airport",
    "City": "Fort Saint John",
    "Country": "Canada",
    "IATA": "YXJ",
    "Latitude": 56.23809814,
    "Longitude": -120.7399979,
    "Timezone": -7
  },
  {
    "Airport ID": 169,
    "Name": "Sioux Lookout Airport",
    "City": "Sioux Lookout",
    "Country": "Canada",
    "IATA": "YXL",
    "Latitude": 50.11389923,
    "Longitude": -91.90529633,
    "Timezone": -6
  },
  {
    "Airport ID": 170,
    "Name": "Pangnirtung Airport",
    "City": "Pangnirtung",
    "Country": "Canada",
    "IATA": "YXP",
    "Latitude": 66.14499664,
    "Longitude": -65.71360016,
    "Timezone": -5
  },
  {
    "Airport ID": 171,
    "Name": "Earlton (Timiskaming Regional) Airport",
    "City": "Earlton",
    "Country": "Canada",
    "IATA": "YXR",
    "Latitude": 47.69740065,
    "Longitude": -79.84734535,
    "Timezone": -5
  },
  {
    "Airport ID": 172,
    "Name": "Prince George Airport",
    "City": "Prince George",
    "Country": "Canada",
    "IATA": "YXS",
    "Latitude": 53.88940048,
    "Longitude": -122.6790009,
    "Timezone": -8
  },
  {
    "Airport ID": 173,
    "Name": "Northwest Regional Airport Terrace-Kitimat",
    "City": "Terrace",
    "Country": "Canada",
    "IATA": "YXT",
    "Latitude": 54.468498,
    "Longitude": -128.576009,
    "Timezone": -8
  },
  {
    "Airport ID": 174,
    "Name": "London Airport",
    "City": "London",
    "Country": "Canada",
    "IATA": "YXU",
    "Latitude": 43.035599,
    "Longitude": -81.1539,
    "Timezone": -5
  },
  {
    "Airport ID": 175,
    "Name": "Abbotsford Airport",
    "City": "Abbotsford",
    "Country": "Canada",
    "IATA": "YXX",
    "Latitude": 49.02529907,
    "Longitude": -122.3610001,
    "Timezone": -8
  },
  {
    "Airport ID": 176,
    "Name": "Whitehorse / Erik Nielsen International Airport",
    "City": "Whitehorse",
    "Country": "Canada",
    "IATA": "YXY",
    "Latitude": 60.70959854,
    "Longitude": -135.0670013,
    "Timezone": -8
  },
  {
    "Airport ID": 177,
    "Name": "North Bay Jack Garland Airport",
    "City": "North Bay",
    "Country": "Canada",
    "IATA": "YYB",
    "Latitude": 46.363602,
    "Longitude": -79.422798,
    "Timezone": -5
  },
  {
    "Airport ID": 178,
    "Name": "Calgary International Airport",
    "City": "Calgary",
    "Country": "Canada",
    "IATA": "YYC",
    "Latitude": 51.11389923,
    "Longitude": -114.0199966,
    "Timezone": -7
  },
  {
    "Airport ID": 179,
    "Name": "Smithers Airport",
    "City": "Smithers",
    "Country": "Canada",
    "IATA": "YYD",
    "Latitude": 54.8246994,
    "Longitude": -127.1829987,
    "Timezone": -8
  },
  {
    "Airport ID": 180,
    "Name": "Fort Nelson Airport",
    "City": "Fort Nelson",
    "Country": "Canada",
    "IATA": "YYE",
    "Latitude": 58.83639908,
    "Longitude": -122.5970001,
    "Timezone": -8
  },
  {
    "Airport ID": 181,
    "Name": "Penticton Airport",
    "City": "Penticton",
    "Country": "Canada",
    "IATA": "YYF",
    "Latitude": 49.46310043,
    "Longitude": -119.6019974,
    "Timezone": -8
  },
  {
    "Airport ID": 182,
    "Name": "Charlottetown Airport",
    "City": "Charlottetown",
    "Country": "Canada",
    "IATA": "YYG",
    "Latitude": 46.29000092,
    "Longitude": -63.12110138,
    "Timezone": -4
  },
  {
    "Airport ID": 183,
    "Name": "Taloyoak Airport",
    "City": "Spence Bay",
    "Country": "Canada",
    "IATA": "YYH",
    "Latitude": 69.54669952,
    "Longitude": -93.5766983,
    "Timezone": -7
  },
  {
    "Airport ID": 184,
    "Name": "Victoria International Airport",
    "City": "Victoria",
    "Country": "Canada",
    "IATA": "YYJ",
    "Latitude": 48.64690018,
    "Longitude": -123.4260025,
    "Timezone": -8
  },
  {
    "Airport ID": 185,
    "Name": "Lynn Lake Airport",
    "City": "Lynn Lake",
    "Country": "Canada",
    "IATA": "YYL",
    "Latitude": 56.86389923,
    "Longitude": -101.0759964,
    "Timezone": -6
  },
  {
    "Airport ID": 186,
    "Name": "Swift Current Airport",
    "City": "Swift Current",
    "Country": "Canada",
    "IATA": "YYN",
    "Latitude": 50.29190063,
    "Longitude": -107.6910019,
    "Timezone": -6
  },
  {
    "Airport ID": 187,
    "Name": "Churchill Airport",
    "City": "Churchill",
    "Country": "Canada",
    "IATA": "YYQ",
    "Latitude": 58.73920059,
    "Longitude": -94.06500244,
    "Timezone": -6
  },
  {
    "Airport ID": 188,
    "Name": "Goose Bay Airport",
    "City": "Goose Bay",
    "Country": "Canada",
    "IATA": "YYR",
    "Latitude": 53.31919861,
    "Longitude": -60.42580032,
    "Timezone": -4
  },
  {
    "Airport ID": 189,
    "Name": "St. John's International Airport",
    "City": "St. John's",
    "Country": "Canada",
    "IATA": "YYT",
    "Latitude": 47.61859894,
    "Longitude": -52.75189972,
    "Timezone": -3.5
  },
  {
    "Airport ID": 190,
    "Name": "Kapuskasing Airport",
    "City": "Kapuskasing",
    "Country": "Canada",
    "IATA": "YYU",
    "Latitude": 49.41389847,
    "Longitude": -82.46749878,
    "Timezone": -5
  },
  {
    "Airport ID": 191,
    "Name": "Armstrong Airport",
    "City": "Armstrong",
    "Country": "Canada",
    "IATA": "YYW",
    "Latitude": 50.29029846,
    "Longitude": -88.90969849,
    "Timezone": -5
  },
  {
    "Airport ID": 192,
    "Name": "Mont Joli Airport",
    "City": "Mont Joli",
    "Country": "Canada",
    "IATA": "YYY",
    "Latitude": 48.60860062,
    "Longitude": -68.20809937,
    "Timezone": -5
  },
  {
    "Airport ID": 193,
    "Name": "Lester B. Pearson International Airport",
    "City": "Toronto",
    "Country": "Canada",
    "IATA": "YYZ",
    "Latitude": 43.67720032,
    "Longitude": -79.63059998,
    "Timezone": -5
  },
  {
    "Airport ID": 194,
    "Name": "Downsview Airport",
    "City": "Toronto",
    "Country": "Canada",
    "IATA": "YZD",
    "Latitude": 43.74250031,
    "Longitude": -79.46559906,
    "Timezone": -5
  },
  {
    "Airport ID": 195,
    "Name": "Gore Bay Manitoulin Airport",
    "City": "Gore Bay",
    "Country": "Canada",
    "IATA": "YZE",
    "Latitude": 45.88529968,
    "Longitude": -82.56780243,
    "Timezone": -5
  },
  {
    "Airport ID": 196,
    "Name": "Yellowknife Airport",
    "City": "Yellowknife",
    "Country": "Canada",
    "IATA": "YZF",
    "Latitude": 62.46279907,
    "Longitude": -114.4400024,
    "Timezone": -7
  },
  {
    "Airport ID": 197,
    "Name": "Slave Lake Airport",
    "City": "Slave Lake",
    "Country": "Canada",
    "IATA": "YZH",
    "Latitude": 55.29309845,
    "Longitude": -114.7770004,
    "Timezone": -7
  },
  {
    "Airport ID": 198,
    "Name": "Sandspit Airport",
    "City": "Sandspit",
    "Country": "Canada",
    "IATA": "YZP",
    "Latitude": 53.25429916,
    "Longitude": -131.8139954,
    "Timezone": -8
  },
  {
    "Airport ID": 199,
    "Name": "Chris Hadfield Airport",
    "City": "Sarnia",
    "Country": "Canada",
    "IATA": "YZR",
    "Latitude": 42.99940109,
    "Longitude": -82.30889893,
    "Timezone": -5
  },
  {
    "Airport ID": 200,
    "Name": "Port Hardy Airport",
    "City": "Port Hardy",
    "Country": "Canada",
    "IATA": "YZT",
    "Latitude": 50.68059921,
    "Longitude": -127.3669968,
    "Timezone": -8
  },
  {
    "Airport ID": 201,
    "Name": "Whitecourt Airport",
    "City": "Whitecourt",
    "Country": "Canada",
    "IATA": "YZU",
    "Latitude": 54.14390182,
    "Longitude": -115.7870026,
    "Timezone": -7
  },
  {
    "Airport ID": 202,
    "Name": "Sept-Îles Airport",
    "City": "Sept-iles",
    "Country": "Canada",
    "IATA": "YZV",
    "Latitude": 50.22330093,
    "Longitude": -66.26560211,
    "Timezone": -5
  },
  {
    "Airport ID": 203,
    "Name": "Teslin Airport",
    "City": "Teslin",
    "Country": "Canada",
    "IATA": "YZW",
    "Latitude": 60.17279816,
    "Longitude": -132.7429962,
    "Timezone": -8
  },
  {
    "Airport ID": 204,
    "Name": "CFB Greenwood",
    "City": "Greenwood",
    "Country": "Canada",
    "IATA": "YZX",
    "Latitude": 44.9844017,
    "Longitude": -64.91690063,
    "Timezone": -4
  },
  {
    "Airport ID": 205,
    "Name": "Faro Airport",
    "City": "Faro",
    "Country": "Canada",
    "IATA": "ZFA",
    "Latitude": 62.20750046,
    "Longitude": -133.3760071,
    "Timezone": -8
  },
  {
    "Airport ID": 206,
    "Name": "Fort Mcpherson Airport",
    "City": "Fort Mcpherson",
    "Country": "Canada",
    "IATA": "ZFM",
    "Latitude": 67.40750122,
    "Longitude": -134.8609924,
    "Timezone": -7
  },
  {
    "Airport ID": 207,
    "Name": "Blida Airport",
    "City": "Blida",
    "Country": "Algeria",
    "IATA": "QLD",
    "Latitude": 36.50360107,
    "Longitude": 2.814169884,
    "Timezone": 1
  },
  {
    "Airport ID": 208,
    "Name": "Bou Saada Airport",
    "City": "Bou Saada",
    "Country": "Algeria",
    "IATA": "BUJ",
    "Latitude": 35.33250046,
    "Longitude": 4.206389904,
    "Timezone": 1
  },
  {
    "Airport ID": 209,
    "Name": "Soummam Airport",
    "City": "Bejaja",
    "Country": "Algeria",
    "IATA": "BJA",
    "Latitude": 36.7120018,
    "Longitude": 5.069920063,
    "Timezone": 1
  },
  {
    "Airport ID": 210,
    "Name": "Houari Boumediene Airport",
    "City": "Algier",
    "Country": "Algeria",
    "IATA": "ALG",
    "Latitude": 36.69100189,
    "Longitude": 3.215409994,
    "Timezone": 1
  },
  {
    "Airport ID": 211,
    "Name": "Djanet Inedbirene Airport",
    "City": "Djanet",
    "Country": "Algeria",
    "IATA": "DJG",
    "Latitude": 24.292801,
    "Longitude": 9.45244,
    "Timezone": 1
  },
  {
    "Airport ID": 212,
    "Name": "Boufarik Airport",
    "City": "Boufarik",
    "Country": "Algeria",
    "IATA": "\\N",
    "Latitude": 36.545799,
    "Longitude": 2.87611,
    "Timezone": 1
  },
  {
    "Airport ID": 213,
    "Name": "Reggane Airport",
    "City": "Reggan",
    "Country": "Algeria",
    "IATA": "\\N",
    "Latitude": 26.7101,
    "Longitude": 0.285647,
    "Timezone": 1
  },
  {
    "Airport ID": 214,
    "Name": "Illizi Takhamalt Airport",
    "City": "Illizi",
    "Country": "Algeria",
    "IATA": "VVZ",
    "Latitude": 26.7234993,
    "Longitude": 8.622650146,
    "Timezone": 1
  },
  {
    "Airport ID": 215,
    "Name": "Ain Oussera Airport",
    "City": "Ain Oussera",
    "Country": "Algeria",
    "IATA": "\\N",
    "Latitude": 35.52539825,
    "Longitude": 2.878710032,
    "Timezone": 1
  },
  {
    "Airport ID": 216,
    "Name": "Aguenar – Hadj Bey Akhamok Airport",
    "City": "Tamanrasset",
    "Country": "Algeria",
    "IATA": "TMR",
    "Latitude": 22.81150055,
    "Longitude": 5.451079845,
    "Timezone": 1
  },
  {
    "Airport ID": 217,
    "Name": "Jijel Ferhat Abbas Airport",
    "City": "Jijel",
    "Country": "Algeria",
    "IATA": "GJL",
    "Latitude": 36.79510117,
    "Longitude": 5.87361002,
    "Timezone": 1
  },
  {
    "Airport ID": 218,
    "Name": "Mecheria Airport",
    "City": "Mecheria",
    "Country": "Algeria",
    "IATA": "MZW",
    "Latitude": 33.53590012,
    "Longitude": -0.2423530072,
    "Timezone": 1
  },
  {
    "Airport ID": 219,
    "Name": "Relizane Airport",
    "City": "Relizane",
    "Country": "Algeria",
    "IATA": "\\N",
    "Latitude": 35.752201,
    "Longitude": 0.626272,
    "Timezone": 1
  },
  {
    "Airport ID": 220,
    "Name": "Rabah Bitat Airport",
    "City": "Annaba",
    "Country": "Algeria",
    "IATA": "AAE",
    "Latitude": 36.822201,
    "Longitude": 7.809174,
    "Timezone": 1
  },
  {
    "Airport ID": 221,
    "Name": "Mohamed Boudiaf International Airport",
    "City": "Constantine",
    "Country": "Algeria",
    "IATA": "CZL",
    "Latitude": 36.27600098,
    "Longitude": 6.620389938,
    "Timezone": 1
  },
  {
    "Airport ID": 222,
    "Name": "Cheikh Larbi Tébessi Airport",
    "City": "Tebessa",
    "Country": "Algeria",
    "IATA": "TEE",
    "Latitude": 35.43159866,
    "Longitude": 8.12071991,
    "Timezone": 1
  },
  {
    "Airport ID": 224,
    "Name": "Hassi R'Mel Airport",
    "City": "Tilrempt",
    "Country": "Algeria",
    "IATA": "HRM",
    "Latitude": 32.93040085,
    "Longitude": 3.311539888,
    "Timezone": 1
  },
  {
    "Airport ID": 225,
    "Name": "Bou Chekif Airport",
    "City": "Tiaret",
    "Country": "Algeria",
    "IATA": "TID",
    "Latitude": 35.34109879,
    "Longitude": 1.463150024,
    "Timezone": 1
  },
  {
    "Airport ID": 226,
    "Name": "Bou Sfer Airport",
    "City": "Bou Sfer",
    "Country": "Algeria",
    "IATA": "\\N",
    "Latitude": 35.73540115,
    "Longitude": -0.8053889871,
    "Timezone": 1
  },
  {
    "Airport ID": 227,
    "Name": "Tindouf Airport",
    "City": "Tindouf",
    "Country": "Algeria",
    "IATA": "TIN",
    "Latitude": 27.7003994,
    "Longitude": -8.167099953,
    "Timezone": 1
  },
  {
    "Airport ID": 228,
    "Name": "Ech Cheliff Airport",
    "City": "Ech-cheliff",
    "Country": "Algeria",
    "IATA": "CFK",
    "Latitude": 36.21269989,
    "Longitude": 1.331769943,
    "Timezone": 1
  },
  {
    "Airport ID": 229,
    "Name": "Tafaraoui Airport",
    "City": "Oran",
    "Country": "Algeria",
    "IATA": "TAF",
    "Latitude": 35.54240036,
    "Longitude": -0.5322780013,
    "Timezone": 1
  },
  {
    "Airport ID": 230,
    "Name": "Zenata – Messali El Hadj Airport",
    "City": "Tlemcen",
    "Country": "Algeria",
    "IATA": "TLM",
    "Latitude": 35.01670074,
    "Longitude": -1.450000048,
    "Timezone": 1
  },
  {
    "Airport ID": 231,
    "Name": "Es Senia Airport",
    "City": "Oran",
    "Country": "Algeria",
    "IATA": "ORN",
    "Latitude": 35.62390137,
    "Longitude": -0.6211829782,
    "Timezone": 1
  },
  {
    "Airport ID": 232,
    "Name": "Sidi Bel Abbes Airport",
    "City": "Sidi Bel Abbes",
    "Country": "Algeria",
    "IATA": "BFW",
    "Latitude": 35.17179871,
    "Longitude": -0.5932750106,
    "Timezone": 1
  },
  {
    "Airport ID": 233,
    "Name": "Ghriss Airport",
    "City": "Ghriss",
    "Country": "Algeria",
    "IATA": "MUW",
    "Latitude": 35.20769882,
    "Longitude": 0.147141993,
    "Timezone": 1
  },
  {
    "Airport ID": 234,
    "Name": "Touat Cheikh Sidi Mohamed Belkebir Airport",
    "City": "Adrar",
    "Country": "Algeria",
    "IATA": "AZR",
    "Latitude": 27.83760071,
    "Longitude": -0.1864140034,
    "Timezone": 1
  },
  {
    "Airport ID": 235,
    "Name": "Biskra Airport",
    "City": "Biskra",
    "Country": "Algeria",
    "IATA": "BSK",
    "Latitude": 34.79330063,
    "Longitude": 5.738230228,
    "Timezone": 1
  },
  {
    "Airport ID": 236,
    "Name": "El Golea Airport",
    "City": "El Golea",
    "Country": "Algeria",
    "IATA": "ELG",
    "Latitude": 30.57130051,
    "Longitude": 2.859590054,
    "Timezone": 1
  },
  {
    "Airport ID": 237,
    "Name": "Noumérat - Moufdi Zakaria Airport",
    "City": "Ghardaia",
    "Country": "Algeria",
    "IATA": "GHA",
    "Latitude": 32.38410187,
    "Longitude": 3.79411006,
    "Timezone": 1
  },
  {
    "Airport ID": 238,
    "Name": "Oued Irara Airport",
    "City": "Hassi Messaoud",
    "Country": "Algeria",
    "IATA": "HME",
    "Latitude": 31.67300034,
    "Longitude": 6.140439987,
    "Timezone": 1
  },
  {
    "Airport ID": 239,
    "Name": "In Salah Airport",
    "City": "In Salah",
    "Country": "Algeria",
    "IATA": "INZ",
    "Latitude": 27.25099945,
    "Longitude": 2.512020111,
    "Timezone": 1
  },
  {
    "Airport ID": 240,
    "Name": "Touggourt Sidi Madhi Airport",
    "City": "Touggourt",
    "Country": "Algeria",
    "IATA": "TGR",
    "Latitude": 33.06779861,
    "Longitude": 6.088669777,
    "Timezone": 1
  },
  {
    "Airport ID": 241,
    "Name": "Laghouat Airport",
    "City": "Laghouat",
    "Country": "Algeria",
    "IATA": "LOO",
    "Latitude": 33.76440048,
    "Longitude": 2.928339958,
    "Timezone": 1
  },
  {
    "Airport ID": 242,
    "Name": "Timimoun Airport",
    "City": "Timimoun",
    "Country": "Algeria",
    "IATA": "TMX",
    "Latitude": 29.2371006,
    "Longitude": 0.2760330141,
    "Timezone": 1
  },
  {
    "Airport ID": 243,
    "Name": "Ain el Beida Airport",
    "City": "Ouargla",
    "Country": "Algeria",
    "IATA": "OGX",
    "Latitude": 31.91720009,
    "Longitude": 5.412779808,
    "Timezone": 1
  },
  {
    "Airport ID": 244,
    "Name": "In Aménas Airport",
    "City": "Zarzaitine",
    "Country": "Algeria",
    "IATA": "IAM",
    "Latitude": 28.0515,
    "Longitude": 9.64291,
    "Timezone": 1
  },
  {
    "Airport ID": 245,
    "Name": "Cadjehoun Airport",
    "City": "Cotonou",
    "Country": "Benin",
    "IATA": "COO",
    "Latitude": 6.357230186,
    "Longitude": 2.384350061,
    "Timezone": 1
  },
  {
    "Airport ID": 246,
    "Name": "Ouagadougou Airport",
    "City": "Ouagadougou",
    "Country": "Burkina Faso",
    "IATA": "OUA",
    "Latitude": 12.3532,
    "Longitude": -1.51242,
    "Timezone": 0
  },
  {
    "Airport ID": 247,
    "Name": "Bobo Dioulasso Airport",
    "City": "Bobo-dioulasso",
    "Country": "Burkina Faso",
    "IATA": "BOY",
    "Latitude": 11.16009998,
    "Longitude": -4.33096981,
    "Timezone": 0
  },
  {
    "Airport ID": 248,
    "Name": "Kotoka International Airport",
    "City": "Accra",
    "Country": "Ghana",
    "IATA": "ACC",
    "Latitude": 5.6051898,
    "Longitude": -0.1667860001,
    "Timezone": 0
  },
  {
    "Airport ID": 249,
    "Name": "Tamale Airport",
    "City": "Tamale",
    "Country": "Ghana",
    "IATA": "TML",
    "Latitude": 9.557189941,
    "Longitude": -0.863214016,
    "Timezone": 0
  },
  {
    "Airport ID": 250,
    "Name": "Wa Airport",
    "City": "Wa",
    "Country": "Ghana",
    "IATA": "\\N",
    "Latitude": 10.08269978,
    "Longitude": -2.507689953,
    "Timezone": 0
  },
  {
    "Airport ID": 251,
    "Name": "Sunyani Airport",
    "City": "Sunyani",
    "Country": "Ghana",
    "IATA": "NYI",
    "Latitude": 7.361830235,
    "Longitude": -2.328759909,
    "Timezone": 0
  },
  {
    "Airport ID": 252,
    "Name": "Takoradi Airport",
    "City": "Takoradi",
    "Country": "Ghana",
    "IATA": "TKD",
    "Latitude": 4.89605999,
    "Longitude": -1.774760008,
    "Timezone": 0
  },
  {
    "Airport ID": 253,
    "Name": "Port Bouet Airport",
    "City": "Abidjan",
    "Country": "Cote d'Ivoire",
    "IATA": "ABJ",
    "Latitude": 5.261390209,
    "Longitude": -3.926290035,
    "Timezone": 0
  },
  {
    "Airport ID": 254,
    "Name": "Bouaké Airport",
    "City": "Bouake",
    "Country": "Cote d'Ivoire",
    "IATA": "BYK",
    "Latitude": 7.738800049,
    "Longitude": -5.07366991,
    "Timezone": 0
  },
  {
    "Airport ID": 255,
    "Name": "Daloa Airport",
    "City": "Daloa",
    "Country": "Cote d'Ivoire",
    "IATA": "DJO",
    "Latitude": 6.792809963,
    "Longitude": -6.473189831,
    "Timezone": 0
  },
  {
    "Airport ID": 256,
    "Name": "Korhogo Airport",
    "City": "Korhogo",
    "Country": "Cote d'Ivoire",
    "IATA": "HGO",
    "Latitude": 9.387180328,
    "Longitude": -5.556660175,
    "Timezone": 0
  },
  {
    "Airport ID": 257,
    "Name": "Man Airport",
    "City": "Man",
    "Country": "Cote d'Ivoire",
    "IATA": "MJC",
    "Latitude": 7.272069931,
    "Longitude": -7.587359905,
    "Timezone": 0
  },
  {
    "Airport ID": 258,
    "Name": "San Pedro Airport",
    "City": "San Pedro",
    "Country": "Cote d'Ivoire",
    "IATA": "SPY",
    "Latitude": 4.746719837,
    "Longitude": -6.660820007,
    "Timezone": 0
  },
  {
    "Airport ID": 259,
    "Name": "Yamoussoukro Airport",
    "City": "Yamoussoukro",
    "Country": "Cote d'Ivoire",
    "IATA": "ASK",
    "Latitude": 6.903170109,
    "Longitude": -5.365580082,
    "Timezone": 0
  },
  {
    "Airport ID": 260,
    "Name": "Nnamdi Azikiwe International Airport",
    "City": "Abuja",
    "Country": "Nigeria",
    "IATA": "ABV",
    "Latitude": 9.006790161,
    "Longitude": 7.263169765,
    "Timezone": 1
  },
  {
    "Airport ID": 261,
    "Name": "Akure Airport",
    "City": "Akure",
    "Country": "Nigeria",
    "IATA": "AKR",
    "Latitude": 7.246739864,
    "Longitude": 5.301010132,
    "Timezone": 1
  },
  {
    "Airport ID": 262,
    "Name": "Benin Airport",
    "City": "Benin",
    "Country": "Nigeria",
    "IATA": "BNI",
    "Latitude": 6.316979885,
    "Longitude": 5.599500179,
    "Timezone": 1
  },
  {
    "Airport ID": 263,
    "Name": "Margaret Ekpo International Airport",
    "City": "Calabar",
    "Country": "Nigeria",
    "IATA": "CBQ",
    "Latitude": 4.976019859,
    "Longitude": 8.347200394,
    "Timezone": 1
  },
  {
    "Airport ID": 264,
    "Name": "Akanu Ibiam International Airport",
    "City": "Enugu",
    "Country": "Nigeria",
    "IATA": "ENU",
    "Latitude": 6.474269867,
    "Longitude": 7.56196022,
    "Timezone": 1
  },
  {
    "Airport ID": 265,
    "Name": "Gusau Airport",
    "City": "Gusau",
    "Country": "Nigeria",
    "IATA": "\\N",
    "Latitude": 12.1717,
    "Longitude": 6.69611,
    "Timezone": 1
  },
  {
    "Airport ID": 266,
    "Name": "Ibadan Airport",
    "City": "Ibadan",
    "Country": "Nigeria",
    "IATA": "IBA",
    "Latitude": 7.362460136,
    "Longitude": 3.978329897,
    "Timezone": 1
  },
  {
    "Airport ID": 267,
    "Name": "Ilorin International Airport",
    "City": "Ilorin",
    "Country": "Nigeria",
    "IATA": "ILR",
    "Latitude": 8.440210342,
    "Longitude": 4.493919849,
    "Timezone": 1
  },
  {
    "Airport ID": 268,
    "Name": "Yakubu Gowon Airport",
    "City": "Jos",
    "Country": "Nigeria",
    "IATA": "JOS",
    "Latitude": 9.639829636,
    "Longitude": 8.869050026,
    "Timezone": 1
  },
  {
    "Airport ID": 269,
    "Name": "Kaduna Airport",
    "City": "Kaduna",
    "Country": "Nigeria",
    "IATA": "KAD",
    "Latitude": 10.6960001,
    "Longitude": 7.320109844,
    "Timezone": 1
  },
  {
    "Airport ID": 270,
    "Name": "Mallam Aminu International Airport",
    "City": "Kano",
    "Country": "Nigeria",
    "IATA": "KAN",
    "Latitude": 12.0476,
    "Longitude": 8.52462,
    "Timezone": 1
  },
  {
    "Airport ID": 271,
    "Name": "Maiduguri International Airport",
    "City": "Maiduguri",
    "Country": "Nigeria",
    "IATA": "MIU",
    "Latitude": 11.85529995,
    "Longitude": 13.08090019,
    "Timezone": 1
  },
  {
    "Airport ID": 272,
    "Name": "Makurdi Airport",
    "City": "Makurdi",
    "Country": "Nigeria",
    "IATA": "MDI",
    "Latitude": 7.70388,
    "Longitude": 8.61394,
    "Timezone": 1
  },
  {
    "Airport ID": 273,
    "Name": "Murtala Muhammed International Airport",
    "City": "Lagos",
    "Country": "Nigeria",
    "IATA": "LOS",
    "Latitude": 6.577370167,
    "Longitude": 3.321160078,
    "Timezone": 1
  },
  {
    "Airport ID": 274,
    "Name": "Minna Airport",
    "City": "Minna",
    "Country": "Nigeria",
    "IATA": "MXJ",
    "Latitude": 9.652170181,
    "Longitude": 6.462259769,
    "Timezone": 1
  },
  {
    "Airport ID": 275,
    "Name": "Port Harcourt International Airport",
    "City": "Port Hartcourt",
    "Country": "Nigeria",
    "IATA": "PHC",
    "Latitude": 5.015490055,
    "Longitude": 6.949590206,
    "Timezone": 1
  },
  {
    "Airport ID": 276,
    "Name": "Sadiq Abubakar III International Airport",
    "City": "Sokoto",
    "Country": "Nigeria",
    "IATA": "SKO",
    "Latitude": 12.91629982,
    "Longitude": 5.207190037,
    "Timezone": 1
  },
  {
    "Airport ID": 277,
    "Name": "Yola Airport",
    "City": "Yola",
    "Country": "Nigeria",
    "IATA": "YOL",
    "Latitude": 9.25755024,
    "Longitude": 12.43039989,
    "Timezone": 1
  },
  {
    "Airport ID": 278,
    "Name": "Zaria Airport",
    "City": "Zaria",
    "Country": "Nigeria",
    "IATA": "ZAR",
    "Latitude": 11.1302,
    "Longitude": 7.68581,
    "Timezone": 1
  },
  {
    "Airport ID": 279,
    "Name": "Maradi Airport",
    "City": "Maradi",
    "Country": "Niger",
    "IATA": "MFQ",
    "Latitude": 13.50249958,
    "Longitude": 7.126749992,
    "Timezone": 1
  },
  {
    "Airport ID": 280,
    "Name": "Diori Hamani International Airport",
    "City": "Niamey",
    "Country": "Niger",
    "IATA": "NIM",
    "Latitude": 13.4815,
    "Longitude": 2.18361,
    "Timezone": 1
  },
  {
    "Airport ID": 281,
    "Name": "Tahoua Airport",
    "City": "Tahoua",
    "Country": "Niger",
    "IATA": "THZ",
    "Latitude": 14.8757,
    "Longitude": 5.265359879,
    "Timezone": 1
  },
  {
    "Airport ID": 282,
    "Name": "Mano Dayak International Airport",
    "City": "Agadez",
    "Country": "Niger",
    "IATA": "AJY",
    "Latitude": 16.9659996,
    "Longitude": 8.000109673,
    "Timezone": 1
  },
  {
    "Airport ID": 283,
    "Name": "Dirkou Airport",
    "City": "Dirkou",
    "Country": "Niger",
    "IATA": "\\N",
    "Latitude": 18.96870041,
    "Longitude": 12.86870003,
    "Timezone": 1
  },
  {
    "Airport ID": 284,
    "Name": "Diffa Airport",
    "City": "Diffa",
    "Country": "Niger",
    "IATA": "\\N",
    "Latitude": 13.37290001,
    "Longitude": 12.6267004,
    "Timezone": 1
  },
  {
    "Airport ID": 285,
    "Name": "Zinder Airport",
    "City": "Zinder",
    "Country": "Niger",
    "IATA": "ZND",
    "Latitude": 13.77900028,
    "Longitude": 8.98375988,
    "Timezone": 1
  },
  {
    "Airport ID": 286,
    "Name": "Monastir Habib Bourguiba International Airport",
    "City": "Monastir",
    "Country": "Tunisia",
    "IATA": "MIR",
    "Latitude": 35.7580986,
    "Longitude": 10.75469971,
    "Timezone": 1
  },
  {
    "Airport ID": 287,
    "Name": "Tunis Carthage International Airport",
    "City": "Tunis",
    "Country": "Tunisia",
    "IATA": "TUN",
    "Latitude": 36.85100174,
    "Longitude": 10.22719955,
    "Timezone": 1
  },
  {
    "Airport ID": 288,
    "Name": "Sidi Ahmed Air Base",
    "City": "Bizerte",
    "Country": "Tunisia",
    "IATA": "\\N",
    "Latitude": 37.245398,
    "Longitude": 9.79145,
    "Timezone": 1
  },
  {
    "Airport ID": 289,
    "Name": "Remada Air Base",
    "City": "Remada",
    "Country": "Tunisia",
    "IATA": "\\N",
    "Latitude": 32.30619812,
    "Longitude": 10.38210011,
    "Timezone": 1
  },
  {
    "Airport ID": 290,
    "Name": "Gafsa Ksar International Airport",
    "City": "Gafsa",
    "Country": "Tunisia",
    "IATA": "GAF",
    "Latitude": 34.42200089,
    "Longitude": 8.822500229,
    "Timezone": 1
  },
  {
    "Airport ID": 291,
    "Name": "Gabès Matmata International Airport",
    "City": "Gabes",
    "Country": "Tunisia",
    "IATA": "GAE",
    "Latitude": 33.87689972,
    "Longitude": 10.10330009,
    "Timezone": 1
  },
  {
    "Airport ID": 292,
    "Name": "Borj El Amri Airport",
    "City": "Bordj El Amri",
    "Country": "Tunisia",
    "IATA": "\\N",
    "Latitude": 36.72129822,
    "Longitude": 9.943149567,
    "Timezone": 1
  },
  {
    "Airport ID": 293,
    "Name": "Djerba Zarzis International Airport",
    "City": "Djerba",
    "Country": "Tunisia",
    "IATA": "DJE",
    "Latitude": 33.875,
    "Longitude": 10.7755003,
    "Timezone": 1
  },
  {
    "Airport ID": 294,
    "Name": "El Borma Airport",
    "City": "El Borma",
    "Country": "Tunisia",
    "IATA": "EBM",
    "Latitude": 31.70429993,
    "Longitude": 9.254619598,
    "Timezone": 1
  },
  {
    "Airport ID": 295,
    "Name": "Sfax Thyna International Airport",
    "City": "Sfax",
    "Country": "Tunisia",
    "IATA": "SFA",
    "Latitude": 34.7179985,
    "Longitude": 10.69099998,
    "Timezone": 1
  },
  {
    "Airport ID": 296,
    "Name": "Tozeur Nefta International Airport",
    "City": "Tozeur",
    "Country": "Tunisia",
    "IATA": "TOE",
    "Latitude": 33.93970108,
    "Longitude": 8.110560417,
    "Timezone": 1
  },
  {
    "Airport ID": 297,
    "Name": "Niamtougou International Airport",
    "City": "Niatougou",
    "Country": "Togo",
    "IATA": "LRL",
    "Latitude": 9.76733017,
    "Longitude": 1.091249943,
    "Timezone": 0
  },
  {
    "Airport ID": 298,
    "Name": "Lomé-Tokoin Airport",
    "City": "Lome",
    "Country": "Togo",
    "IATA": "LFW",
    "Latitude": 6.165609837,
    "Longitude": 1.254510045,
    "Timezone": 0
  },
  {
    "Airport ID": 299,
    "Name": "Antwerp International Airport (Deurne)",
    "City": "Antwerp",
    "Country": "Belgium",
    "IATA": "ANR",
    "Latitude": 51.18939972,
    "Longitude": 4.460279942,
    "Timezone": 1
  },
  {
    "Airport ID": 300,
    "Name": "Beauvechain Air Base",
    "City": "Beauvechain",
    "Country": "Belgium",
    "IATA": "\\N",
    "Latitude": 50.75859833,
    "Longitude": 4.768330097,
    "Timezone": 1
  },
  {
    "Airport ID": 301,
    "Name": "Kleine Brogel Air Base",
    "City": "Kleine Brogel",
    "Country": "Belgium",
    "IATA": "\\N",
    "Latitude": 51.168301,
    "Longitude": 5.47,
    "Timezone": 1
  },
  {
    "Airport ID": 302,
    "Name": "Brussels Airport",
    "City": "Brussels",
    "Country": "Belgium",
    "IATA": "BRU",
    "Latitude": 50.90140152,
    "Longitude": 4.48443985,
    "Timezone": 1
  },
  {
    "Airport ID": 303,
    "Name": "Jehonville Air Base",
    "City": "Bertrix",
    "Country": "Belgium",
    "IATA": "\\N",
    "Latitude": 49.89170074,
    "Longitude": 5.223889828,
    "Timezone": 1
  },
  {
    "Airport ID": 304,
    "Name": "Brussels South Charleroi Airport",
    "City": "Charleroi",
    "Country": "Belgium",
    "IATA": "CRL",
    "Latitude": 50.459202,
    "Longitude": 4.45382,
    "Timezone": 1
  },
  {
    "Airport ID": 305,
    "Name": "Chièvres Air Base",
    "City": "Chievres",
    "Country": "Belgium",
    "IATA": "\\N",
    "Latitude": 50.57580185,
    "Longitude": 3.83100009,
    "Timezone": 1
  },
  {
    "Airport ID": 306,
    "Name": "Koksijde Air Base",
    "City": "Koksijde",
    "Country": "Belgium",
    "IATA": "\\N",
    "Latitude": 51.09030151,
    "Longitude": 2.652780056,
    "Timezone": 1
  },
  {
    "Airport ID": 307,
    "Name": "Florennes Air Base",
    "City": "Florennes",
    "Country": "Belgium",
    "IATA": "\\N",
    "Latitude": 50.24330139,
    "Longitude": 4.645830154,
    "Timezone": 1
  },
  {
    "Airport ID": 308,
    "Name": "Wevelgem Airport",
    "City": "Kortrijk-vevelgem",
    "Country": "Belgium",
    "IATA": "KJK",
    "Latitude": 50.81719971,
    "Longitude": 3.20472002,
    "Timezone": 1
  },
  {
    "Airport ID": 309,
    "Name": "Liège Airport",
    "City": "Liege",
    "Country": "Belgium",
    "IATA": "LGG",
    "Latitude": 50.63740158,
    "Longitude": 5.443220139,
    "Timezone": 1
  },
  {
    "Airport ID": 310,
    "Name": "Ostend-Bruges International Airport",
    "City": "Ostend",
    "Country": "Belgium",
    "IATA": "OST",
    "Latitude": 51.19889832,
    "Longitude": 2.862220049,
    "Timezone": 1
  },
  {
    "Airport ID": 311,
    "Name": "Zutendaal Air Base",
    "City": "Zutendaal",
    "Country": "Belgium",
    "IATA": "\\N",
    "Latitude": 50.94749832,
    "Longitude": 5.590559959,
    "Timezone": 1
  },
  {
    "Airport ID": 312,
    "Name": "Brustem Airfield Sint Truiden",
    "City": "Sint-truiden",
    "Country": "Belgium",
    "IATA": "\\N",
    "Latitude": 50.791901,
    "Longitude": 5.20167,
    "Timezone": 1
  },
  {
    "Airport ID": 313,
    "Name": "Saint Hubert Air Base",
    "City": "St.-hubert",
    "Country": "Belgium",
    "IATA": "\\N",
    "Latitude": 50.03440094,
    "Longitude": 5.440810204,
    "Timezone": 1
  },
  {
    "Airport ID": 314,
    "Name": "Ursel Air Base",
    "City": "Ursel",
    "Country": "Belgium",
    "IATA": "\\N",
    "Latitude": 51.14419937,
    "Longitude": 3.47555995,
    "Timezone": 1
  },
  {
    "Airport ID": 315,
    "Name": "Weelde Air Base",
    "City": "Weelde",
    "Country": "Belgium",
    "IATA": "\\N",
    "Latitude": 51.39479828,
    "Longitude": 4.960189819,
    "Timezone": 1
  },
  {
    "Airport ID": 316,
    "Name": "Zoersel (Oostmalle) Airfield",
    "City": "Zoersel",
    "Country": "Belgium",
    "IATA": "OBL",
    "Latitude": 51.264702,
    "Longitude": 4.75333,
    "Timezone": 1
  },
  {
    "Airport ID": 317,
    "Name": "Flugplatz Bautzen",
    "City": "Bautzen",
    "Country": "Germany",
    "IATA": "\\N",
    "Latitude": 51.193611,
    "Longitude": 14.519722,
    "Timezone": 1
  },
  {
    "Airport ID": 318,
    "Name": "Altenburg-Nobitz Airport",
    "City": "Altenburg",
    "Country": "Germany",
    "IATA": "AOC",
    "Latitude": 50.981945,
    "Longitude": 12.506389,
    "Timezone": 1
  },
  {
    "Airport ID": 319,
    "Name": "Dessau Airfield",
    "City": "Dessau",
    "Country": "Germany",
    "IATA": "\\N",
    "Latitude": 51.831694,
    "Longitude": 12.190962,
    "Timezone": 1
  },
  {
    "Airport ID": 320,
    "Name": "Eisenhüttenstadt Airfield",
    "City": "Eisenhuettenstadt",
    "Country": "Germany",
    "IATA": "\\N",
    "Latitude": 52.195856,
    "Longitude": 14.58753,
    "Timezone": 1
  },
  {
    "Airport ID": 322,
    "Name": "Großenhain Airport",
    "City": "Suhl",
    "Country": "Germany",
    "IATA": "\\N",
    "Latitude": 51.30805588,
    "Longitude": 13.5555563,
    "Timezone": 1
  },
  {
    "Airport ID": 323,
    "Name": "Merseburg Airport",
    "City": "Muehlhausen",
    "Country": "Germany",
    "IATA": "\\N",
    "Latitude": 51.3630556,
    "Longitude": 11.9408333,
    "Timezone": 1
  },
  {
    "Airport ID": 324,
    "Name": "Halle-Oppin Airport",
    "City": "Halle",
    "Country": "Germany",
    "IATA": "\\N",
    "Latitude": 51.552223,
    "Longitude": 12.053889,
    "Timezone": 1
  },
  {
    "Airport ID": 325,
    "Name": "Riesa-Göhlis Airport",
    "City": "Riesa",
    "Country": "Germany",
    "IATA": "IES",
    "Latitude": 51.29360962,
    "Longitude": 13.35611057,
    "Timezone": 1
  },
  {
    "Airport ID": 326,
    "Name": "Rechlin-Lärz Airport",
    "City": "Rechlin-laerz",
    "Country": "Germany",
    "IATA": "REB",
    "Latitude": 53.30638886,
    "Longitude": 12.75222206,
    "Timezone": 1
  },
  {
    "Airport ID": 327,
    "Name": "Strausberg Airport",
    "City": "Strausberg",
    "Country": "Germany",
    "IATA": "\\N",
    "Latitude": 52.58055496,
    "Longitude": 13.91666698,
    "Timezone": 1
  },
  {
    "Airport ID": 328,
    "Name": "Schönhagen Airport",
    "City": "Schoenhagen",
    "Country": "Germany",
    "IATA": "QXH",
    "Latitude": 52.203609,
    "Longitude": 13.156389,
    "Timezone": 1
  },
  {
    "Airport ID": 329,
    "Name": "Barth Airport",
    "City": "Barth",
    "Country": "Germany",
    "IATA": "BBH",
    "Latitude": 54.338253,
    "Longitude": 12.710515,
    "Timezone": 1
  },
  {
    "Airport ID": 330,
    "Name": "Jena-Schöngleina Airfield",
    "City": "Jena",
    "Country": "Germany",
    "IATA": "\\N",
    "Latitude": 50.915279,
    "Longitude": 11.714444,
    "Timezone": 1
  },
  {
    "Airport ID": 331,
    "Name": "Kyritz Airport",
    "City": "Kyritz",
    "Country": "Germany",
    "IATA": "\\N",
    "Latitude": 52.91888809,
    "Longitude": 12.42527771,
    "Timezone": 1
  },
  {
    "Airport ID": 332,
    "Name": "Magdeburg \"City\" Airport",
    "City": "Magdeburg",
    "Country": "Germany",
    "IATA": "ZMG",
    "Latitude": 52.073612,
    "Longitude": 11.626389,
    "Timezone": 1
  },
  {
    "Airport ID": 333,
    "Name": "Rothenburg/Görlitz Airport",
    "City": "Rothenburg/ol",
    "Country": "Germany",
    "IATA": "\\N",
    "Latitude": 51.36333466,
    "Longitude": 14.94999981,
    "Timezone": 1
  },
  {
    "Airport ID": 334,
    "Name": "Anklam Airfield",
    "City": "Anklam",
    "Country": "Germany",
    "IATA": "\\N",
    "Latitude": 53.832779,
    "Longitude": 13.668611,
    "Timezone": 1
  },
  {
    "Airport ID": 335,
    "Name": "Cottbus-Drewitz Airport",
    "City": "Cottbus",
    "Country": "Germany",
    "IATA": "CBU",
    "Latitude": 51.889442,
    "Longitude": 14.531944,
    "Timezone": 1
  },
  {
    "Airport ID": 336,
    "Name": "Kamenz Airport",
    "City": "Kamenz",
    "Country": "Germany",
    "IATA": "\\N",
    "Latitude": 51.29694366,
    "Longitude": 14.12749958,
    "Timezone": 1
  },
  {
    "Airport ID": 337,
    "Name": "Berlin-Schönefeld Airport",
    "City": "Berlin",
    "Country": "Germany",
    "IATA": "SXF",
    "Latitude": 52.380001,
    "Longitude": 13.5225,
    "Timezone": 1
  },
  {
    "Airport ID": 338,
    "Name": "Dresden Airport",
    "City": "Dresden",
    "Country": "Germany",
    "IATA": "DRS",
    "Latitude": 51.13280106,
    "Longitude": 13.76720047,
    "Timezone": 1
  },
  {
    "Airport ID": 339,
    "Name": "Erfurt Airport",
    "City": "Erfurt",
    "Country": "Germany",
    "IATA": "ERF",
    "Latitude": 50.97980118,
    "Longitude": 10.95810032,
    "Timezone": 1
  },
  {
    "Airport ID": 340,
    "Name": "Frankfurt am Main Airport",
    "City": "Frankfurt",
    "Country": "Germany",
    "IATA": "FRA",
    "Latitude": 50.033333,
    "Longitude": 8.570556,
    "Timezone": 1
  },
  {
    "Airport ID": 341,
    "Name": "Münster Osnabrück Airport",
    "City": "Munster",
    "Country": "Germany",
    "IATA": "FMO",
    "Latitude": 52.13460159,
    "Longitude": 7.684830189,
    "Timezone": 1
  },
  {
    "Airport ID": 342,
    "Name": "Hamburg Airport",
    "City": "Hamburg",
    "Country": "Germany",
    "IATA": "HAM",
    "Latitude": 53.63040161,
    "Longitude": 9.988229752,
    "Timezone": 1
  },
  {
    "Airport ID": 343,
    "Name": "Berlin-Tempelhof International Airport",
    "City": "Berlin",
    "Country": "Germany",
    "IATA": "THF",
    "Latitude": 52.47299957,
    "Longitude": 13.40390015,
    "Timezone": 1
  },
  {
    "Airport ID": 344,
    "Name": "Cologne Bonn Airport",
    "City": "Cologne",
    "Country": "Germany",
    "IATA": "CGN",
    "Latitude": 50.86589813,
    "Longitude": 7.142739773,
    "Timezone": 1
  },
  {
    "Airport ID": 345,
    "Name": "Düsseldorf Airport",
    "City": "Duesseldorf",
    "Country": "Germany",
    "IATA": "DUS",
    "Latitude": 51.289501,
    "Longitude": 6.76678,
    "Timezone": 1
  },
  {
    "Airport ID": 346,
    "Name": "Munich Airport",
    "City": "Munich",
    "Country": "Germany",
    "IATA": "MUC",
    "Latitude": 48.353802,
    "Longitude": 11.7861,
    "Timezone": 1
  },
  {
    "Airport ID": 347,
    "Name": "Nuremberg Airport",
    "City": "Nuernberg",
    "Country": "Germany",
    "IATA": "NUE",
    "Latitude": 49.498699,
    "Longitude": 11.078056,
    "Timezone": 1
  },
  {
    "Airport ID": 348,
    "Name": "Leipzig/Halle Airport",
    "City": "Leipzig",
    "Country": "Germany",
    "IATA": "LEJ",
    "Latitude": 51.423889,
    "Longitude": 12.236389,
    "Timezone": 1
  },
  {
    "Airport ID": 349,
    "Name": "Saarbrücken Airport",
    "City": "Saarbruecken",
    "Country": "Germany",
    "IATA": "SCN",
    "Latitude": 49.21459961,
    "Longitude": 7.109509945,
    "Timezone": 1
  },
  {
    "Airport ID": 350,
    "Name": "Stuttgart Airport",
    "City": "Stuttgart",
    "Country": "Germany",
    "IATA": "STR",
    "Latitude": 48.68989944,
    "Longitude": 9.221960068,
    "Timezone": 1
  },
  {
    "Airport ID": 351,
    "Name": "Berlin-Tegel Airport",
    "City": "Berlin",
    "Country": "Germany",
    "IATA": "TXL",
    "Latitude": 52.5597,
    "Longitude": 13.2877,
    "Timezone": 1
  },
  {
    "Airport ID": 352,
    "Name": "Hannover Airport",
    "City": "Hannover",
    "Country": "Germany",
    "IATA": "HAJ",
    "Latitude": 52.46110153,
    "Longitude": 9.685079575,
    "Timezone": 1
  },
  {
    "Airport ID": 353,
    "Name": "Bremen Airport",
    "City": "Bremen",
    "Country": "Germany",
    "IATA": "BRE",
    "Latitude": 53.04750061,
    "Longitude": 8.786669731,
    "Timezone": 1
  },
  {
    "Airport ID": 354,
    "Name": "Frankfurt-Egelsbach Airport",
    "City": "Egelsbach",
    "Country": "Germany",
    "IATA": "QEF",
    "Latitude": 49.959999,
    "Longitude": 8.645833,
    "Timezone": 1
  },
  {
    "Airport ID": 355,
    "Name": "Frankfurt-Hahn Airport",
    "City": "Hahn",
    "Country": "Germany",
    "IATA": "HHN",
    "Latitude": 49.9487,
    "Longitude": 7.26389,
    "Timezone": 1
  },
  {
    "Airport ID": 356,
    "Name": "Mannheim-City Airport",
    "City": "Mannheim",
    "Country": "Germany",
    "IATA": "MHG",
    "Latitude": 49.473057,
    "Longitude": 8.514167,
    "Timezone": 1
  },
  {
    "Airport ID": 357,
    "Name": "Allendorf/Eder Airport",
    "City": "Allendorf",
    "Country": "Germany",
    "IATA": "\\N",
    "Latitude": 51.03499985,
    "Longitude": 8.680832863,
    "Timezone": 1
  },
  {
    "Airport ID": 358,
    "Name": "Worms Airport",
    "City": "Worms",
    "Country": "Germany",
    "IATA": "\\N",
    "Latitude": 49.606945,
    "Longitude": 8.368333,
    "Timezone": 1
  },
  {
    "Airport ID": 359,
    "Name": "Mainz-Finthen Airport",
    "City": "Mainz",
    "Country": "Germany",
    "IATA": "\\N",
    "Latitude": 49.967499,
    "Longitude": 8.147222,
    "Timezone": 1
  },
  {
    "Airport ID": 360,
    "Name": "Eisenach-Kindel Airport",
    "City": "Eisenach",
    "Country": "Germany",
    "IATA": "EIB",
    "Latitude": 50.991604,
    "Longitude": 10.47973,
    "Timezone": 1
  },
  {
    "Airport ID": 361,
    "Name": "Siegerland Airport",
    "City": "Siegerland",
    "Country": "Germany",
    "IATA": "SGE",
    "Latitude": 50.70769882,
    "Longitude": 8.082969666,
    "Timezone": 1
  },
  {
    "Airport ID": 362,
    "Name": "Hamburg-Finkenwerder Airport",
    "City": "Hamburg",
    "Country": "Germany",
    "IATA": "XFW",
    "Latitude": 53.53527832,
    "Longitude": 9.83555603,
    "Timezone": 1
  },
  {
    "Airport ID": 363,
    "Name": "Kiel-Holtenau Airport",
    "City": "Kiel",
    "Country": "Germany",
    "IATA": "KEL",
    "Latitude": 54.37944412,
    "Longitude": 10.14527798,
    "Timezone": 1
  },
  {
    "Airport ID": 364,
    "Name": "Lübeck Blankensee Airport",
    "City": "Luebeck",
    "Country": "Germany",
    "IATA": "LBC",
    "Latitude": 53.80540085,
    "Longitude": 10.71920013,
    "Timezone": 1
  },
  {
    "Airport ID": 365,
    "Name": "Flugplatz Dahlemer Binz",
    "City": "Dahlemer Binz",
    "Country": "Germany",
    "IATA": "\\N",
    "Latitude": 50.40555573,
    "Longitude": 6.528889179,
    "Timezone": 1
  },
  {
    "Airport ID": 366,
    "Name": "Meinerzhagen Airport",
    "City": "Meinerzhagen",
    "Country": "Germany",
    "IATA": "\\N",
    "Latitude": 51.09999847,
    "Longitude": 7.599999905,
    "Timezone": 1
  },
  {
    "Airport ID": 367,
    "Name": "Arnsberg-Menden Airport",
    "City": "Arnsberg",
    "Country": "Germany",
    "IATA": "\\N",
    "Latitude": 51.48389053,
    "Longitude": 7.898333073,
    "Timezone": 1
  },
  {
    "Airport ID": 368,
    "Name": "Essen Mulheim Airport",
    "City": "Essen",
    "Country": "Germany",
    "IATA": "ESS",
    "Latitude": 51.40230179,
    "Longitude": 6.937329769,
    "Timezone": 1
  },
  {
    "Airport ID": 369,
    "Name": "Bielefeld Airport",
    "City": "Bielefeld",
    "Country": "Germany",
    "IATA": "BFE",
    "Latitude": 51.964722,
    "Longitude": 8.544444,
    "Timezone": 1
  },
  {
    "Airport ID": 370,
    "Name": "Mönchengladbach Airport",
    "City": "Moenchengladbach",
    "Country": "Germany",
    "IATA": "MGL",
    "Latitude": 51.230278,
    "Longitude": 6.504444,
    "Timezone": 1
  },
  {
    "Airport ID": 371,
    "Name": "Paderborn Lippstadt Airport",
    "City": "Paderborn",
    "Country": "Germany",
    "IATA": "PAD",
    "Latitude": 51.61410141,
    "Longitude": 8.616319656,
    "Timezone": 1
  },
  {
    "Airport ID": 372,
    "Name": "Stadtlohn-Vreden Airport",
    "City": "Stadtlohn",
    "Country": "Germany",
    "IATA": "\\N",
    "Latitude": 51.99583435,
    "Longitude": 6.840556145,
    "Timezone": 1
  },
  {
    "Airport ID": 373,
    "Name": "Dortmund Airport",
    "City": "Dortmund",
    "Country": "Germany",
    "IATA": "DTM",
    "Latitude": 51.5182991,
    "Longitude": 7.612239838,
    "Timezone": 1
  },
  {
    "Airport ID": 374,
    "Name": "Augsburg Airport",
    "City": "Augsburg",
    "Country": "Germany",
    "IATA": "AGB",
    "Latitude": 48.425278,
    "Longitude": 10.931667,
    "Timezone": 1
  },
  {
    "Airport ID": 375,
    "Name": "Biberach a.d. Riß Airfield",
    "City": "Biberach",
    "Country": "Germany",
    "IATA": "\\N",
    "Latitude": 48.111111,
    "Longitude": 9.762778,
    "Timezone": 1
  },
  {
    "Airport ID": 376,
    "Name": "Eggenfelden Airport",
    "City": "Eggenfelden",
    "Country": "Germany",
    "IATA": "\\N",
    "Latitude": 48.39611053,
    "Longitude": 12.72361088,
    "Timezone": 1
  },
  {
    "Airport ID": 377,
    "Name": "Mindelheim-Mattsies Airfield",
    "City": "Mindelheim",
    "Country": "Germany",
    "IATA": "\\N",
    "Latitude": 48.106945,
    "Longitude": 10.525,
    "Timezone": 1
  },
  {
    "Airport ID": 378,
    "Name": "Oberpfaffenhofen Airport",
    "City": "Oberpfaffenhofen",
    "Country": "Germany",
    "IATA": "OBF",
    "Latitude": 48.081402,
    "Longitude": 11.2831,
    "Timezone": 1
  },
  {
    "Airport ID": 379,
    "Name": "Straubing Airport",
    "City": "Straubing",
    "Country": "Germany",
    "IATA": "RBM",
    "Latitude": 48.90083313,
    "Longitude": 12.51666737,
    "Timezone": 1
  },
  {
    "Airport ID": 380,
    "Name": "Vilshofen Airport",
    "City": "Vilshofen",
    "Country": "Germany",
    "IATA": "\\N",
    "Latitude": 48.63499832,
    "Longitude": 13.19555569,
    "Timezone": 1
  },
  {
    "Airport ID": 381,
    "Name": "Leutkirch-Unterzeil Airport",
    "City": "Leutkirch",
    "Country": "Germany",
    "IATA": "\\N",
    "Latitude": 47.85889053,
    "Longitude": 10.01416683,
    "Timezone": 1
  },
  {
    "Airport ID": 382,
    "Name": "Friedrichshafen Airport",
    "City": "Friedrichshafen",
    "Country": "Germany",
    "IATA": "FDH",
    "Latitude": 47.67129898,
    "Longitude": 9.511489868,
    "Timezone": 1
  },
  {
    "Airport ID": 383,
    "Name": "Schwerin Parchim Airport",
    "City": "Parchim",
    "Country": "Germany",
    "IATA": "SZW",
    "Latitude": 53.426998,
    "Longitude": 11.7834,
    "Timezone": 1
  },
  {
    "Airport ID": 384,
    "Name": "Stendal-Borstel Airport",
    "City": "Stendal",
    "Country": "Germany",
    "IATA": "\\N",
    "Latitude": 52.62888718,
    "Longitude": 11.81861115,
    "Timezone": 1
  },
  {
    "Airport ID": 385,
    "Name": "Aalen-Heidenheim/Elchingen Airport",
    "City": "Aalen-heidenheim",
    "Country": "Germany",
    "IATA": "\\N",
    "Latitude": 48.77777863,
    "Longitude": 10.26472187,
    "Timezone": 1
  },
  {
    "Airport ID": 386,
    "Name": "Bayreuth Airport",
    "City": "Bayreuth",
    "Country": "Germany",
    "IATA": "BYU",
    "Latitude": 49.985001,
    "Longitude": 11.64,
    "Timezone": 1
  },
  {
    "Airport ID": 387,
    "Name": "Burg Feuerstein Airport",
    "City": "Burg Feuerstein",
    "Country": "Germany",
    "IATA": "URD",
    "Latitude": 49.79416656,
    "Longitude": 11.13361073,
    "Timezone": 1
  },
  {
    "Airport ID": 388,
    "Name": "Hof-Plauen Airport",
    "City": "Hof",
    "Country": "Germany",
    "IATA": "HOQ",
    "Latitude": 50.28861237,
    "Longitude": 11.85638905,
    "Timezone": 1
  },
  {
    "Airport ID": 389,
    "Name": "Haßfurt-Schweinfurt Airport",
    "City": "Hassfurt",
    "Country": "Germany",
    "IATA": "\\N",
    "Latitude": 50.01805496,
    "Longitude": 10.52944374,
    "Timezone": 1
  },
  {
    "Airport ID": 390,
    "Name": "Koblenz-Winningen Airfield",
    "City": "Koblenz",
    "Country": "Germany",
    "IATA": "\\N",
    "Latitude": 50.325558,
    "Longitude": 7.528611,
    "Timezone": 1
  },
  {
    "Airport ID": 391,
    "Name": "Trier-Föhren Airport",
    "City": "Trier",
    "Country": "Germany",
    "IATA": "\\N",
    "Latitude": 49.863888,
    "Longitude": 6.7875,
    "Timezone": 1
  },
  {
    "Airport ID": 392,
    "Name": "Speyer Airfield",
    "City": "Speyer",
    "Country": "Germany",
    "IATA": "\\N",
    "Latitude": 49.304722,
    "Longitude": 8.451389,
    "Timezone": 1
  },
  {
    "Airport ID": 393,
    "Name": "Zweibrücken Airport",
    "City": "Zweibruecken",
    "Country": "Germany",
    "IATA": "ZQW",
    "Latitude": 49.2094,
    "Longitude": 7.40056,
    "Timezone": 1
  },
  {
    "Airport ID": 394,
    "Name": "Donaueschingen-Villingen Airport",
    "City": "Donaueschingen",
    "Country": "Germany",
    "IATA": "ZQL",
    "Latitude": 47.97333145,
    "Longitude": 8.522221565,
    "Timezone": 1
  },
  {
    "Airport ID": 395,
    "Name": "Freiburg i. Br. Airport",
    "City": "Freiburg",
    "Country": "Germany",
    "IATA": "\\N",
    "Latitude": 48.02277756,
    "Longitude": 7.832499981,
    "Timezone": 1
  },
  {
    "Airport ID": 396,
    "Name": "Mengen-Hohentengen Airport",
    "City": "Mengen",
    "Country": "Germany",
    "IATA": "\\N",
    "Latitude": 48.05389023,
    "Longitude": 9.372777939,
    "Timezone": 1
  },
  {
    "Airport ID": 397,
    "Name": "Adolf Würth Airport",
    "City": "Schwaebisch Hall",
    "Country": "Germany",
    "IATA": "\\N",
    "Latitude": 49.11833191,
    "Longitude": 9.783888817,
    "Timezone": 1
  },
  {
    "Airport ID": 398,
    "Name": "Finsterwalde/Schacksdorf Airport",
    "City": "Soest",
    "Country": "Germany",
    "IATA": "\\N",
    "Latitude": 51.607498,
    "Longitude": 13.743611,
    "Timezone": 1
  },
  {
    "Airport ID": 399,
    "Name": "Braunschweig-Wolfsburg Airport",
    "City": "Braunschweig",
    "Country": "Germany",
    "IATA": "BWE",
    "Latitude": 52.319199,
    "Longitude": 10.5561,
    "Timezone": 1
  },
  {
    "Airport ID": 400,
    "Name": "Kassel-Calden Airport",
    "City": "Kassel",
    "Country": "Germany",
    "IATA": "KSF",
    "Latitude": 51.417273,
    "Longitude": 9.384967,
    "Timezone": 1
  },
  {
    "Airport ID": 401,
    "Name": "Hildesheim Airport",
    "City": "Hildesheim",
    "Country": "Germany",
    "IATA": "\\N",
    "Latitude": 52.18138885,
    "Longitude": 9.946389198,
    "Timezone": 1
  },
  {
    "Airport ID": 402,
    "Name": "Bremerhaven Airport",
    "City": "Bremerhaven",
    "Country": "Germany",
    "IATA": "BRV",
    "Latitude": 53.506943,
    "Longitude": 8.572778,
    "Timezone": 1
  },
  {
    "Airport ID": 403,
    "Name": "Emden Airport",
    "City": "Emden",
    "Country": "Germany",
    "IATA": "EME",
    "Latitude": 53.391109,
    "Longitude": 7.2275,
    "Timezone": 1
  },
  {
    "Airport ID": 404,
    "Name": "Leer-Papenburg Airport",
    "City": "Leer",
    "Country": "Germany",
    "IATA": "\\N",
    "Latitude": 53.27194214,
    "Longitude": 7.44166708,
    "Timezone": 1
  },
  {
    "Airport ID": 405,
    "Name": "Wilhelmshaven-Mariensiel Airport",
    "City": "Wilhelmshaven",
    "Country": "Germany",
    "IATA": "WVN",
    "Latitude": 53.50222015,
    "Longitude": 8.052222252,
    "Timezone": 1
  },
  {
    "Airport ID": 406,
    "Name": "Borkum Airport",
    "City": "Borkum",
    "Country": "Germany",
    "IATA": "BMK",
    "Latitude": 53.59639,
    "Longitude": 6.709167,
    "Timezone": 1
  },
  {
    "Airport ID": 407,
    "Name": "Norderney Airport",
    "City": "Norderney",
    "Country": "Germany",
    "IATA": "NRD",
    "Latitude": 53.70694351,
    "Longitude": 7.230000019,
    "Timezone": 1
  },
  {
    "Airport ID": 408,
    "Name": "Flensburg-Schäferhaus Airport",
    "City": "Flensburg",
    "Country": "Germany",
    "IATA": "FLF",
    "Latitude": 54.7733345,
    "Longitude": 9.378889084,
    "Timezone": 1
  },
  {
    "Airport ID": 409,
    "Name": "Rendsburg-Schachtholm Airport",
    "City": "Rendsburg",
    "Country": "Germany",
    "IATA": "\\N",
    "Latitude": 54.22000122,
    "Longitude": 9.599444389,
    "Timezone": 1
  },
  {
    "Airport ID": 410,
    "Name": "Westerland Sylt Airport",
    "City": "Westerland",
    "Country": "Germany",
    "IATA": "GWT",
    "Latitude": 54.91320038,
    "Longitude": 8.340470314,
    "Timezone": 1
  },
  {
    "Airport ID": 411,
    "Name": "Ämari Air Base",
    "City": "Armari Air Force Base",
    "Country": "Estonia",
    "IATA": "\\N",
    "Latitude": 59.26029968,
    "Longitude": 24.20849991,
    "Timezone": 2
  },
  {
    "Airport ID": 412,
    "Name": "Kärdla Airport",
    "City": "Kardla",
    "Country": "Estonia",
    "IATA": "KDL",
    "Latitude": 58.99079895,
    "Longitude": 22.83069992,
    "Timezone": 2
  },
  {
    "Airport ID": 413,
    "Name": "Kuressaare Airport",
    "City": "Kuressaare",
    "Country": "Estonia",
    "IATA": "URE",
    "Latitude": 58.22990036,
    "Longitude": 22.5095005,
    "Timezone": 2
  },
  {
    "Airport ID": 414,
    "Name": "Pärnu Airport",
    "City": "Parnu",
    "Country": "Estonia",
    "IATA": "EPU",
    "Latitude": 58.41899872,
    "Longitude": 24.4727993,
    "Timezone": 2
  },
  {
    "Airport ID": 415,
    "Name": "Lennart Meri Tallinn Airport",
    "City": "Tallinn-ulemiste International",
    "Country": "Estonia",
    "IATA": "TLL",
    "Latitude": 59.41329956,
    "Longitude": 24.83279991,
    "Timezone": 2
  },
  {
    "Airport ID": 416,
    "Name": "Tartu Airport",
    "City": "Tartu",
    "Country": "Estonia",
    "IATA": "TAY",
    "Latitude": 58.30749893,
    "Longitude": 26.69039917,
    "Timezone": 2
  },
  {
    "Airport ID": 417,
    "Name": "Enontekio Airport",
    "City": "Enontekio",
    "Country": "Finland",
    "IATA": "ENF",
    "Latitude": 68.36260223,
    "Longitude": 23.42429924,
    "Timezone": 2
  },
  {
    "Airport ID": 418,
    "Name": "Eura Airport",
    "City": "Eura",
    "Country": "Finland",
    "IATA": "\\N",
    "Latitude": 61.11610031,
    "Longitude": 22.20140076,
    "Timezone": 2
  },
  {
    "Airport ID": 419,
    "Name": "Halli Airport",
    "City": "Halli",
    "Country": "Finland",
    "IATA": "KEV",
    "Latitude": 61.856039,
    "Longitude": 24.786686,
    "Timezone": 2
  },
  {
    "Airport ID": 420,
    "Name": "Helsinki Malmi Airport",
    "City": "Helsinki",
    "Country": "Finland",
    "IATA": "HEM",
    "Latitude": 60.25460052,
    "Longitude": 25.0428009,
    "Timezone": 2
  },
  {
    "Airport ID": 421,
    "Name": "Helsinki Vantaa Airport",
    "City": "Helsinki",
    "Country": "Finland",
    "IATA": "HEL",
    "Latitude": 60.31719971,
    "Longitude": 24.9633007,
    "Timezone": 2
  },
  {
    "Airport ID": 422,
    "Name": "Hameenkyro Airport",
    "City": "Hameenkyro",
    "Country": "Finland",
    "IATA": "\\N",
    "Latitude": 61.68970108,
    "Longitude": 23.07369995,
    "Timezone": 2
  },
  {
    "Airport ID": 423,
    "Name": "Hanko Airport",
    "City": "Hanko",
    "Country": "Finland",
    "IATA": "\\N",
    "Latitude": 59.84889984,
    "Longitude": 23.08359909,
    "Timezone": 2
  },
  {
    "Airport ID": 424,
    "Name": "Hyvinkää Airfield",
    "City": "Hyvinkaa",
    "Country": "Finland",
    "IATA": "HYV",
    "Latitude": 60.65439987,
    "Longitude": 24.8810997,
    "Timezone": 2
  },
  {
    "Airport ID": 425,
    "Name": "Kiikala Airport",
    "City": "Kikala",
    "Country": "Finland",
    "IATA": "\\N",
    "Latitude": 60.46250153,
    "Longitude": 23.65250015,
    "Timezone": 2
  },
  {
    "Airport ID": 426,
    "Name": "Immola Airport",
    "City": "Immola",
    "Country": "Finland",
    "IATA": "\\N",
    "Latitude": 61.24919891,
    "Longitude": 28.90369987,
    "Timezone": 2
  },
  {
    "Airport ID": 427,
    "Name": "Kitee Airport",
    "City": "Kitee",
    "Country": "Finland",
    "IATA": "KTQ",
    "Latitude": 62.1661,
    "Longitude": 30.073601,
    "Timezone": 2
  },
  {
    "Airport ID": 428,
    "Name": "Ivalo Airport",
    "City": "Ivalo",
    "Country": "Finland",
    "IATA": "IVL",
    "Latitude": 68.6072998,
    "Longitude": 27.40530014,
    "Timezone": 2
  },
  {
    "Airport ID": 429,
    "Name": "Joensuu Airport",
    "City": "Joensuu",
    "Country": "Finland",
    "IATA": "JOE",
    "Latitude": 62.66289902,
    "Longitude": 29.60750008,
    "Timezone": 2
  },
  {
    "Airport ID": 430,
    "Name": "Jyvaskyla Airport",
    "City": "Jyvaskyla",
    "Country": "Finland",
    "IATA": "JYV",
    "Latitude": 62.3995018,
    "Longitude": 25.67830086,
    "Timezone": 2
  },
  {
    "Airport ID": 431,
    "Name": "Kauhava Airport",
    "City": "Kauhava",
    "Country": "Finland",
    "IATA": "KAU",
    "Latitude": 63.127102,
    "Longitude": 23.051399,
    "Timezone": 2
  },
  {
    "Airport ID": 432,
    "Name": "Kemi-Tornio Airport",
    "City": "Kemi",
    "Country": "Finland",
    "IATA": "KEM",
    "Latitude": 65.77870178,
    "Longitude": 24.58209991,
    "Timezone": 2
  },
  {
    "Airport ID": 433,
    "Name": "Kajaani Airport",
    "City": "Kajaani",
    "Country": "Finland",
    "IATA": "KAJ",
    "Latitude": 64.28549957,
    "Longitude": 27.69239998,
    "Timezone": 2
  },
  {
    "Airport ID": 434,
    "Name": "Kauhajoki Airport",
    "City": "Kauhajoki",
    "Country": "Finland",
    "IATA": "KHJ",
    "Latitude": 62.46250153,
    "Longitude": 22.39310074,
    "Timezone": 2
  },
  {
    "Airport ID": 435,
    "Name": "Kokkola-Pietarsaari Airport",
    "City": "Kruunupyy",
    "Country": "Finland",
    "IATA": "KOK",
    "Latitude": 63.72119904,
    "Longitude": 23.14310074,
    "Timezone": 2
  },
  {
    "Airport ID": 436,
    "Name": "Kemijarvi Airport",
    "City": "Kemijarvi",
    "Country": "Finland",
    "IATA": "\\N",
    "Latitude": 66.712898,
    "Longitude": 27.156799,
    "Timezone": 2
  },
  {
    "Airport ID": 437,
    "Name": "Kuusamo Airport",
    "City": "Kuusamo",
    "Country": "Finland",
    "IATA": "KAO",
    "Latitude": 65.98760223,
    "Longitude": 29.23940086,
    "Timezone": 2
  },
  {
    "Airport ID": 438,
    "Name": "Kittilä Airport",
    "City": "Kittila",
    "Country": "Finland",
    "IATA": "KTT",
    "Latitude": 67.7009964,
    "Longitude": 24.84679985,
    "Timezone": 2
  },
  {
    "Airport ID": 439,
    "Name": "Kuopio Airport",
    "City": "Kuopio",
    "Country": "Finland",
    "IATA": "KUO",
    "Latitude": 63.00709915,
    "Longitude": 27.79780006,
    "Timezone": 2
  },
  {
    "Airport ID": 440,
    "Name": "Lahti Vesivehmaa Airport",
    "City": "Vesivehmaa",
    "Country": "Finland",
    "IATA": "QLF",
    "Latitude": 61.144199,
    "Longitude": 25.693501,
    "Timezone": 2
  },
  {
    "Airport ID": 441,
    "Name": "Lappeenranta Airport",
    "City": "Lappeenranta",
    "Country": "Finland",
    "IATA": "LPP",
    "Latitude": 61.044601,
    "Longitude": 28.144743,
    "Timezone": 2
  },
  {
    "Airport ID": 442,
    "Name": "Mariehamn Airport",
    "City": "Mariehamn",
    "Country": "Finland",
    "IATA": "MHQ",
    "Latitude": 60.12220001,
    "Longitude": 19.89819908,
    "Timezone": 2
  },
  {
    "Airport ID": 443,
    "Name": "Menkijarvi Airport",
    "City": "Menkijarvi",
    "Country": "Finland",
    "IATA": "\\N",
    "Latitude": 62.94670105,
    "Longitude": 23.51889992,
    "Timezone": 2
  },
  {
    "Airport ID": 444,
    "Name": "Mikkeli Airport",
    "City": "Mikkeli",
    "Country": "Finland",
    "IATA": "MIK",
    "Latitude": 61.6866,
    "Longitude": 27.201799,
    "Timezone": 2
  },
  {
    "Airport ID": 445,
    "Name": "Nummela Airport",
    "City": "Nummela",
    "Country": "Finland",
    "IATA": "\\N",
    "Latitude": 60.33390045,
    "Longitude": 24.29640007,
    "Timezone": 2
  },
  {
    "Airport ID": 446,
    "Name": "Oulu Airport",
    "City": "Oulu",
    "Country": "Finland",
    "IATA": "OUL",
    "Latitude": 64.93009949,
    "Longitude": 25.35460091,
    "Timezone": 2
  },
  {
    "Airport ID": 447,
    "Name": "Piikajarvi Airport",
    "City": "Piikajarvi",
    "Country": "Finland",
    "IATA": "\\N",
    "Latitude": 61.24560165,
    "Longitude": 22.19339943,
    "Timezone": 2
  },
  {
    "Airport ID": 448,
    "Name": "Pori Airport",
    "City": "Pori",
    "Country": "Finland",
    "IATA": "POR",
    "Latitude": 61.46170044,
    "Longitude": 21.79999924,
    "Timezone": 2
  },
  {
    "Airport ID": 449,
    "Name": "Pudasjärvi Airport",
    "City": "Pudasjarvi",
    "Country": "Finland",
    "IATA": "\\N",
    "Latitude": 65.40219879,
    "Longitude": 26.94689941,
    "Timezone": 2
  },
  {
    "Airport ID": 450,
    "Name": "Pyhäsalmi Airport",
    "City": "Pyhasalmi",
    "Country": "Finland",
    "IATA": "\\N",
    "Latitude": 63.73189926,
    "Longitude": 25.92630005,
    "Timezone": 2
  },
  {
    "Airport ID": 451,
    "Name": "Raahe Pattijoki Airport",
    "City": "Pattijoki",
    "Country": "Finland",
    "IATA": "\\N",
    "Latitude": 64.68810272,
    "Longitude": 24.69580078,
    "Timezone": 2
  },
  {
    "Airport ID": 452,
    "Name": "Rantasalmi Airport",
    "City": "Rantasalmi",
    "Country": "Finland",
    "IATA": "\\N",
    "Latitude": 62.06549835,
    "Longitude": 28.35650063,
    "Timezone": 2
  },
  {
    "Airport ID": 453,
    "Name": "Rovaniemi Airport",
    "City": "Rovaniemi",
    "Country": "Finland",
    "IATA": "RVN",
    "Latitude": 66.56479645,
    "Longitude": 25.83040047,
    "Timezone": 2
  },
  {
    "Airport ID": 454,
    "Name": "Rayskala Airport",
    "City": "Rayskala",
    "Country": "Finland",
    "IATA": "\\N",
    "Latitude": 60.74470139,
    "Longitude": 24.10779953,
    "Timezone": 2
  },
  {
    "Airport ID": 455,
    "Name": "Savonlinna Airport",
    "City": "Savonlinna",
    "Country": "Finland",
    "IATA": "SVL",
    "Latitude": 61.94309998,
    "Longitude": 28.94510078,
    "Timezone": 2
  },
  {
    "Airport ID": 456,
    "Name": "Selanpaa Airport",
    "City": "Selanpaa",
    "Country": "Finland",
    "IATA": "\\N",
    "Latitude": 61.06240082,
    "Longitude": 26.7989006,
    "Timezone": 2
  },
  {
    "Airport ID": 457,
    "Name": "Sodankyla Airport",
    "City": "Sodankyla",
    "Country": "Finland",
    "IATA": "SOT",
    "Latitude": 67.39499664,
    "Longitude": 26.61910057,
    "Timezone": 2
  },
  {
    "Airport ID": 458,
    "Name": "Tampere-Pirkkala Airport",
    "City": "Tampere",
    "Country": "Finland",
    "IATA": "TMP",
    "Latitude": 61.41410065,
    "Longitude": 23.60440063,
    "Timezone": 2
  },
  {
    "Airport ID": 459,
    "Name": "Teisko Airport",
    "City": "Teisko",
    "Country": "Finland",
    "IATA": "\\N",
    "Latitude": 61.7733,
    "Longitude": 24.027,
    "Timezone": 2
  },
  {
    "Airport ID": 460,
    "Name": "Turku Airport",
    "City": "Turku",
    "Country": "Finland",
    "IATA": "TKU",
    "Latitude": 60.51409912,
    "Longitude": 22.26280022,
    "Timezone": 2
  },
  {
    "Airport ID": 461,
    "Name": "Utti Air Base",
    "City": "Utti",
    "Country": "Finland",
    "IATA": "UTI",
    "Latitude": 60.89640045,
    "Longitude": 26.93840027,
    "Timezone": 2
  },
  {
    "Airport ID": 462,
    "Name": "Vaasa Airport",
    "City": "Vaasa",
    "Country": "Finland",
    "IATA": "VAA",
    "Latitude": 63.05070114,
    "Longitude": 21.7621994,
    "Timezone": 2
  },
  {
    "Airport ID": 463,
    "Name": "Varkaus Airport",
    "City": "Varkaus",
    "Country": "Finland",
    "IATA": "VRK",
    "Latitude": 62.17110062,
    "Longitude": 27.86860085,
    "Timezone": 2
  },
  {
    "Airport ID": 464,
    "Name": "Ylivieska Airfield",
    "City": "Ylivieska-raudaskyla",
    "Country": "Finland",
    "IATA": "YLI",
    "Latitude": 64.0547222,
    "Longitude": 24.7252778,
    "Timezone": 2
  },
  {
    "Airport ID": 465,
    "Name": "Belfast International Airport",
    "City": "Belfast",
    "Country": "United Kingdom",
    "IATA": "BFS",
    "Latitude": 54.65750122,
    "Longitude": -6.215829849,
    "Timezone": 0
  },
  {
    "Airport ID": 466,
    "Name": "St Angelo Airport",
    "City": "Enniskillen",
    "Country": "United Kingdom",
    "IATA": "ENK",
    "Latitude": 54.39889908,
    "Longitude": -7.651669979,
    "Timezone": 0
  },
  {
    "Airport ID": 467,
    "Name": "George Best Belfast City Airport",
    "City": "Belfast",
    "Country": "United Kingdom",
    "IATA": "BHD",
    "Latitude": 54.61809921,
    "Longitude": -5.872499943,
    "Timezone": 0
  },